[{"date":"2024-05-16T00:00:00.000","case_cad_event_number":"230870011","flight_duration_minutes":"5","reason_for_flight":"Pursuant to a search warrant","location":"4900 block 3rd St","geocoded_location":"4900 BLOCK OF 3RD ST","point":{"type":"Point","coordinates":[-122.391270446,37.733318253]},"analysis_neighborhood":"Bayview Hunters Point","supervisor_district":"10","data_as_of":"2026-02-03T15:23:08.000","data_loaded_at":"2026-02-03T15:32:40.633"},{"date":"2024-05-22T00:00:00.000","case_cad_event_number":"240321684","flight_duration_minutes":"80","reason_for_flight":"Auto Boost","location":"200 block Berkeley Way","geocoded_location":"200 BLOCK OF BERKELEY WAY","point":{"type":"Point","coordinates":[-122.439724463,37.739637223]},"analysis_neighborhood":"Glen Park","supervisor_district":"8","data_as_of":"2026-02-03T15:23:08.000","data_loaded_at":"2026-02-03T15:32:40.633"},{"date":"2024-05-24T00:00:00.000","case_cad_event_number":"210054","flight_duration_minutes":"20","reason_for_flight":"Plainclothes Op","location":"3500 block 20th Ave","geocoded_location":"3500 BLOCK OF 20TH ST","point":{"type":"Point","coordinates":[-122.420199921,37.758567627]},"analysis_neighborhood":"Mission","supervisor_district":"9","data_as_of":"2026-02-03T15:23:08.000","data_loaded_at":"2026-02-03T15:32:40.633"},{"date":"2024-05-24T00:00:00.000","case_cad_event_number":"210054","flight_duration_minutes":"35","reason_for_flight":"Plainclothes Op","location":"3500 block 20th Ave","geocoded_location":"3500 BLOCK OF 20TH ST","point":{"type":"Point","coordinates":[-122.420199921,37.758567627]},"analysis_neighborhood":"Mission","supervisor_district":"9","data_as_of":"2026-02-03T15:23:08.000","data_loaded_at":"2026-02-03T15:32:40.633"},{"date":"2024-05-24T00:00:00.000","case_cad_event_number":"240326985","flight_duration_minutes":"89","reason_for_flight":"Stolen Vehicle Suspect","location":"400 block Franklin St","geocoded_location":"400 BLOCK OF FRANKLIN ST","point":{"type":"Point","coordinates":[-122.421670069,37.778703295]},"analysis_neighborhood":"Hayes Valley","supervisor_district":"5","data_as_of":"2026-02-03T15:23:08.000","data_loaded_at":"2026-02-03T15:32:40.633"},{"date":"2024-05-24T00:00:00.000","case_cad_event_number":"240326985","flight_duration_minutes":"3","reason_for_flight":"Arrest of Auto Burglary Suspect","location":"Fulton/Grove","data_as_of":"2026-02-03T15:23:08.000","data_loaded_at":"2026-02-03T15:32:40.633"},{"date":"2024-05-30T00:00:00.000","case_cad_event_number":"24-003357","flight_duration_minutes":"15","reason_for_flight":"Outside Agency Assist - DCPD - Robbery Suspect","location":"Out of SF","data_as_of":"2026-02-03T15:23:08.000","data_loaded_at":"2026-02-03T15:32:40.633"},{"date":"2024-05-31T00:00:00.000","case_cad_event_number":"240341240","flight_duration_minutes":"19","reason_for_flight":"Plainclothes Op - Arrest of Armed & Dangerous Suspect - Fled","location":"100 Block Arch St.","geocoded_location":"100 BLOCK OF ARCH ST","point":{"type":"Point","coordinates":[-122.467097457,37.713369491]},"analysis_neighborhood":"Oceanview/Merced/Ingleside","supervisor_district":"11","data_as_of":"2026-02-03T15:23:08.000","data_loaded_at":"2026-02-03T15:32:40.633"},{"date":"2024-06-03T00:00:00.000","case_cad_event_number":"240348832","flight_duration_minutes":"37","reason_for_flight":"Pursuant to a search warrant","location":"1100 block Columbus Ave","geocoded_location":"1100 BLOCK OF COLUMBUS AVE","point":{"type":"Point","coordinates":[-122.4169162,37.80495473]},"analysis_neighborhood":"Russian Hill","supervisor_district":"3","data_as_of":"2026-02-03T15:23:08.000","data_loaded_at":"2026-02-03T15:32:40.633"},{"date":"2024-06-06T00:00:00.000","case_cad_event_number":"240354146","flight_duration_minutes":"366","reason_for_flight":"Suicidal Subject","location":"2700 block Harrison St","geocoded_location":"2700 BLOCK OF HARRISON ST","point":{"type":"Point","coordinates":[-122.411984404,37.753419483]},"analysis_neighborhood":"Mission","supervisor_district":"9","data_as_of":"2026-02-03T15:23:08.000","data_loaded_at":"2026-02-03T15:32:40.633"},{"date":"2024-06-07T00:00:00.000","case_cad_event_number":"240357407","flight_duration_minutes":"40","reason_for_flight":"Arrest of Auto Burglary Suspect","location":"3500 Block Buckingham Way","data_as_of":"2026-02-03T15:23:08.000","data_loaded_at":"2026-02-03T15:32:40.633"},{"date":"2024-06-10T00:00:00.000","case_cad_event_number":"240369781","flight_duration_minutes":"48","reason_for_flight":"Narcotics Investigation","location":"900 block Gilman Ave","geocoded_location":"900 BLOCK OF GILMAN AVE","point":{"type":"Point","coordinates":[-122.38677222,37.717462472]},"analysis_neighborhood":"Bayview Hunters Point","supervisor_district":"10","data_as_of":"2026-02-03T15:23:08.000","data_loaded_at":"2026-02-03T15:32:40.633"},{"date":"2024-06-18T00:00:00.000","case_cad_event_number":"240379627","flight_duration_minutes":"60","reason_for_flight":"Pursuant to a search warrant","location":"100 Block Brighton St","geocoded_location":"100 BLOCK OF BRIGHTON AVE","point":{"type":"Point","coordinates":[-122.455134083,37.720965124]},"analysis_neighborhood":"Oceanview/Merced/Ingleside","supervisor_district":"11","data_as_of":"2026-02-03T15:23:08.000","data_loaded_at":"2026-02-03T15:32:40.633"},{"date":"2024-06-18T00:00:00.000","case_cad_event_number":"240298093","flight_duration_minutes":"5","reason_for_flight":"Pursuant to a search warrant","location":"Out of SF","data_as_of":"2026-02-03T15:23:08.000","data_loaded_at":"2026-02-03T15:32:40.633"},{"date":"2024-06-21T00:00:00.000","case_cad_event_number":"240388311","flight_duration_minutes":"43","reason_for_flight":"Robbery with gun","location":"11th St/Avenue E","geocoded_location":"11TH TI ST & AVENUE E","point":{"type":"Point","coordinates":[-122.3729415,37.826136]},"analysis_neighborhood":"Treasure Island","supervisor_district":"6","data_as_of":"2026-02-03T15:23:08.000","data_loaded_at":"2026-02-03T15:32:40.633"},{"date":"2024-06-23T00:00:00.000","case_cad_event_number":"240388311","flight_duration_minutes":"202","reason_for_flight":"Arrest warrant","location":"Avenue B/9th St","geocoded_location":"AVENUE B & 9TH TI ST","point":{"type":"Point","coordinates":[-122.3749215,37.823184]},"analysis_neighborhood":"Treasure Island","supervisor_district":"6","data_as_of":"2026-02-03T15:23:08.000","data_loaded_at":"2026-02-03T15:32:40.633"},{"date":"2024-06-29T00:00:00.000","case_cad_event_number":"230100M","flight_duration_minutes":"119","reason_for_flight":"Command authorized special event PRIDE","location":"100 block Larkin St","geocoded_location":"100 BLOCK OF LARKIN ST","point":{"type":"Point","coordinates":[-122.416687559,37.779132147]},"analysis_neighborhood":"Tenderloin","supervisor_district":"5","data_as_of":"2026-02-03T15:23:08.000","data_loaded_at":"2026-02-03T15:32:40.633"},{"date":"2024-06-29T00:00:00.000","case_cad_event_number":"240401399","flight_duration_minutes":"63","reason_for_flight":"Catalytic Converter Theft Suspect","location":"300 block Valencia St","geocoded_location":"300 BLOCK OF VALENCIA ST","point":{"type":"Point","coordinates":[-122.422125777,37.767234799]},"analysis_neighborhood":"Mission","supervisor_district":"9","data_as_of":"2026-02-03T15:23:08.000","data_loaded_at":"2026-02-03T15:32:40.633"},{"date":"2024-06-30T00:00:00.000","case_cad_event_number":"230100M","flight_duration_minutes":"336","reason_for_flight":"Command authorized special event PRIDE","location":"100 block Larkin St","geocoded_location":"100 BLOCK OF LARKIN ST","point":{"type":"Point","coordinates":[-122.416687559,37.779132147]},"analysis_neighborhood":"Tenderloin","supervisor_district":"5","data_as_of":"2026-02-03T15:23:08.000","data_loaded_at":"2026-02-03T15:32:40.633"},{"date":"2024-07-03T00:00:00.000","case_cad_event_number":"240414367","flight_duration_minutes":"274","reason_for_flight":"Pursuant to a search warrant","location":"100 block Roosevelt Way","geocoded_location":"100 BLOCK OF ROOSEVELT WAY","point":{"type":"Point","coordinates":[-122.4389203,37.766709378]},"analysis_neighborhood":"Castro/Upper Market","supervisor_district":"8","data_as_of":"2026-02-03T15:23:08.000","data_loaded_at":"2026-02-03T15:32:40.633"},{"date":"2024-07-04T00:00:00.000","case_cad_event_number":"241862148","flight_duration_minutes":"20","reason_for_flight":"Command authorized special event - 7/4","location":"3000 block 25th St","geocoded_location":"3000 BLOCK OF 25TH ST","point":{"type":"Point","coordinates":[-122.411037242,37.751081611]},"analysis_neighborhood":"Mission","supervisor_district":"9","data_as_of":"2026-02-03T15:23:08.000","data_loaded_at":"2026-02-03T15:32:40.633"},{"date":"2024-07-06T00:00:00.000","case_cad_event_number":"240000M","flight_duration_minutes":"300","reason_for_flight":"Command authorized special event - Dolores Hill Bomb","location":"19th/Church","geocoded_location":"19TH ST & CHURCH ST","point":{"type":"Point","coordinates":[-122.428215,37.759698]},"analysis_neighborhood":"Castro/Upper Market","supervisor_district":"8","data_as_of":"2026-02-03T15:23:08.000","data_loaded_at":"2026-02-03T15:32:40.633"},{"date":"2024-07-10T00:00:00.000","case_cad_event_number":"240417487","flight_duration_minutes":"5","reason_for_flight":"Pursuant to a search warrant","location":"1000 block Mission St","geocoded_location":"1000 BLOCK OF MISSION ST","point":{"type":"Point","coordinates":[-122.409855835,37.780079888]},"analysis_neighborhood":"South of Market","supervisor_district":"6","data_as_of":"2026-02-03T15:23:08.000","data_loaded_at":"2026-02-03T15:32:40.633"},{"date":"2024-07-11T00:00:00.000","case_cad_event_number":"240435699","flight_duration_minutes":"66","reason_for_flight":"Pursuant to a search warrant","location":"1200 block 30th St","geocoded_location":"1200 BLOCK OF 30TH AVE","point":{"type":"Point","coordinates":[-122.488988545,37.763973547]},"analysis_neighborhood":"Sunset/Parkside","supervisor_district":"4","data_as_of":"2026-02-03T15:23:08.000","data_loaded_at":"2026-02-03T15:32:40.633"},{"date":"2024-07-12T00:00:00.000","case_cad_event_number":"240435699","flight_duration_minutes":"220","reason_for_flight":"Pursuant to a search warrant","location":"Out of SF","data_as_of":"2026-02-03T15:23:08.000","data_loaded_at":"2026-02-03T15:32:40.633"},{"date":"2024-07-17T00:00:00.000","case_cad_event_number":"241992829","flight_duration_minutes":"121","reason_for_flight":"Threats","location":"Stockton/Beach","geocoded_location":"STOCKTON ST & BEACH ST","point":{"type":"Point","coordinates":[-122.4106965,37.807893]},"analysis_neighborhood":"North Beach","supervisor_district":"3","data_as_of":"2026-02-03T15:23:08.000","data_loaded_at":"2026-02-03T15:32:40.633"},{"date":"2024-07-18T00:00:00.000","case_cad_event_number":"242001471","flight_duration_minutes":"17","reason_for_flight":"Auto Boost","location":"Stockton/Beach","geocoded_location":"STOCKTON ST & BEACH ST","point":{"type":"Point","coordinates":[-122.4106965,37.807893]},"analysis_neighborhood":"North Beach","supervisor_district":"3","data_as_of":"2026-02-03T15:23:08.000","data_loaded_at":"2026-02-03T15:32:40.633"},{"date":"2024-07-18T00:00:00.000","case_cad_event_number":"240381707","flight_duration_minutes":"25","reason_for_flight":"Pursuant to a search warrant","location":"Drummond Alley","data_as_of":"2026-02-03T15:23:08.000","data_loaded_at":"2026-02-03T15:32:40.633"},{"date":"2024-07-19T00:00:00.000","case_cad_event_number":"240448880","flight_duration_minutes":"120","reason_for_flight":"Search & Rescue","location":"Lands End Trail","data_as_of":"2026-02-03T15:23:08.000","data_loaded_at":"2026-02-03T15:32:40.633"},{"date":"2024-07-24T00:00:00.000","case_cad_event_number":"242062622","flight_duration_minutes":"13","reason_for_flight":"Dog in Traffic","location":"Stockton/Beach","geocoded_location":"STOCKTON ST & BEACH ST","point":{"type":"Point","coordinates":[-122.4106965,37.807893]},"analysis_neighborhood":"North Beach","supervisor_district":"3","data_as_of":"2026-02-03T15:23:08.000","data_loaded_at":"2026-02-03T15:32:40.633"},{"date":"2024-07-24T00:00:00.000","case_cad_event_number":"240461343","flight_duration_minutes":"114","reason_for_flight":"Emergency Call Drop","location":"Stockton/Beach","geocoded_location":"STOCKTON ST & BEACH ST","point":{"type":"Point","coordinates":[-122.4106965,37.807893]},"analysis_neighborhood":"North Beach","supervisor_district":"3","data_as_of":"2026-02-03T15:23:08.000","data_loaded_at":"2026-02-03T15:32:40.633"},{"date":"2024-07-25T00:00:00.000","case_cad_event_number":"242072064","flight_duration_minutes":"16","reason_for_flight":"Traffic Stop","location":"Stockton/Beach","geocoded_location":"STOCKTON ST & BEACH ST","point":{"type":"Point","coordinates":[-122.4106965,37.807893]},"analysis_neighborhood":"North Beach","supervisor_district":"3","data_as_of":"2026-02-03T15:23:08.000","data_loaded_at":"2026-02-03T15:32:40.633"},{"date":"2024-07-25T00:00:00.000","case_cad_event_number":"242072418","flight_duration_minutes":"21","reason_for_flight":"Emergency Call - Open Line","location":"Stockton/Beach","geocoded_location":"STOCKTON ST & BEACH ST","point":{"type":"Point","coordinates":[-122.4106965,37.807893]},"analysis_neighborhood":"North Beach","supervisor_district":"3","data_as_of":"2026-02-03T15:23:08.000","data_loaded_at":"2026-02-03T15:32:40.633"},{"date":"2024-07-25T00:00:00.000","case_cad_event_number":"242072245","flight_duration_minutes":"23","reason_for_flight":"Traffic Stop","location":"Stockton/Beach","geocoded_location":"STOCKTON ST & BEACH ST","point":{"type":"Point","coordinates":[-122.4106965,37.807893]},"analysis_neighborhood":"North Beach","supervisor_district":"3","data_as_of":"2026-02-03T15:23:08.000","data_loaded_at":"2026-02-03T15:32:40.633"},{"date":"2024-07-25T00:00:00.000","case_cad_event_number":"242072101","flight_duration_minutes":"51","reason_for_flight":"Robbery with Gun","location":"Stockton/Beach","geocoded_location":"STOCKTON ST & BEACH ST","point":{"type":"Point","coordinates":[-122.4106965,37.807893]},"analysis_neighborhood":"North Beach","supervisor_district":"3","data_as_of":"2026-02-03T15:23:08.000","data_loaded_at":"2026-02-03T15:32:40.633"},{"date":"2024-07-26T00:00:00.000","case_cad_event_number":"240467313","flight_duration_minutes":"76","reason_for_flight":"Auto Burglary - Dirt Biker Fled","location":"500 block Bay St","geocoded_location":"500 BLOCK OF BAY ST","point":{"type":"Point","coordinates":[-122.41609301,37.805317256]},"analysis_neighborhood":"North Beach","supervisor_district":"3","data_as_of":"2026-02-03T15:23:08.000","data_loaded_at":"2026-02-03T15:32:40.633"},{"date":"2024-07-27T00:00:00.000","case_cad_event_number":"242091859","flight_duration_minutes":"14","reason_for_flight":"Suspicious Person","location":"Stockton/Beach","geocoded_location":"STOCKTON ST & BEACH ST","point":{"type":"Point","coordinates":[-122.4106965,37.807893]},"analysis_neighborhood":"North Beach","supervisor_district":"3","data_as_of":"2026-02-03T15:23:08.000","data_loaded_at":"2026-02-03T15:32:40.633"},{"date":"2024-07-27T00:00:00.000","case_cad_event_number":"242092258","flight_duration_minutes":"41","reason_for_flight":"Suspicious Vehicle","location":"Stockton/Beach","geocoded_location":"STOCKTON ST & BEACH ST","point":{"type":"Point","coordinates":[-122.4106965,37.807893]},"analysis_neighborhood":"North Beach","supervisor_district":"3","data_as_of":"2026-02-03T15:23:08.000","data_loaded_at":"2026-02-03T15:32:40.633"},{"date":"2024-07-27T00:00:00.000","case_cad_event_number":"242092019","flight_duration_minutes":"48","reason_for_flight":"Suspicious Vehicle","location":"Stockton/Beach","geocoded_location":"STOCKTON ST & BEACH ST","point":{"type":"Point","coordinates":[-122.4106965,37.807893]},"analysis_neighborhood":"North Beach","supervisor_district":"3","data_as_of":"2026-02-03T15:23:08.000","data_loaded_at":"2026-02-03T15:32:40.633"},{"date":"2024-07-27T00:00:00.000","case_cad_event_number":"240469193","flight_duration_minutes":"55","reason_for_flight":"Auto Burglary - Suspect Fled","location":"Stockton/Beach","geocoded_location":"STOCKTON ST & BEACH ST","point":{"type":"Point","coordinates":[-122.4106965,37.807893]},"analysis_neighborhood":"North Beach","supervisor_district":"3","data_as_of":"2026-02-03T15:23:08.000","data_loaded_at":"2026-02-03T15:32:40.633"},{"date":"2024-07-29T00:00:00.000","case_cad_event_number":"240471499","flight_duration_minutes":"5","reason_for_flight":"Person with a gun","location":"2500 block Jackson St","geocoded_location":"2500 BLOCK OF JACKSON ST","point":{"type":"Point","coordinates":[-122.437051717,37.792163677]},"analysis_neighborhood":"Pacific Heights","supervisor_district":"2","data_as_of":"2026-02-03T15:23:08.000","data_loaded_at":"2026-02-03T15:32:40.633"},{"date":"2024-07-31T00:00:00.000","case_cad_event_number":"242131569","flight_duration_minutes":"7","reason_for_flight":"Burglary","location":"100 Block Telegraph Hill","geocoded_location":"100 BLOCK OF TELEGRAPH HILL BLVD","point":{"type":"Point","coordinates":[-122.406291596,37.802235361]},"analysis_neighborhood":"North Beach","supervisor_district":"3","data_as_of":"2026-02-03T15:23:08.000","data_loaded_at":"2026-02-03T15:32:40.633"},{"date":"2024-07-31T00:00:00.000","case_cad_event_number":"242132726","flight_duration_minutes":"4","reason_for_flight":"Fight","location":"1400 Block Stockton","geocoded_location":"1400 BLOCK OF STOCKTON ST","point":{"type":"Point","coordinates":[-122.408943464,37.799125538]},"analysis_neighborhood":"Chinatown","supervisor_district":"3","data_as_of":"2026-02-03T15:23:08.000","data_loaded_at":"2026-02-03T15:32:40.633"},{"date":"2024-07-31T00:00:00.000","case_cad_event_number":"242131763","flight_duration_minutes":"11","reason_for_flight":"Silent Hold Up Alarm","location":"400 Block Northpoint","geocoded_location":"400 BLOCK OF NORTH POINT ST","point":{"type":"Point","coordinates":[-122.414637219,37.806451097]},"analysis_neighborhood":"North Beach","supervisor_district":"3","data_as_of":"2026-02-03T15:23:08.000","data_loaded_at":"2026-02-03T15:32:40.633"},{"date":"2024-07-31T00:00:00.000","case_cad_event_number":"242132587","flight_duration_minutes":"16","reason_for_flight":"Suspicious Vehicle","location":"Embarcadero/Bay","geocoded_location":"THE EMBARCADERO & BAY ST","point":{"type":"Point","coordinates":[-122.40567,37.806678]},"analysis_neighborhood":"North Beach","supervisor_district":"3","data_as_of":"2026-02-03T15:23:08.000","data_loaded_at":"2026-02-03T15:32:40.633"},{"date":"2024-07-31T00:00:00.000","case_cad_event_number":"242132675","flight_duration_minutes":"10","reason_for_flight":"Jumper","location":"Sacramento/Drumm St.","geocoded_location":"SACRAMENTO ST & DRUMM ST","point":{"type":"Point","coordinates":[-122.396598,37.794591]},"analysis_neighborhood":"Financial District/South Beach","supervisor_district":"3","data_as_of":"2026-02-03T15:23:08.000","data_loaded_at":"2026-02-03T15:32:40.633"},{"date":"2024-08-01T00:00:00.000","case_cad_event_number":"242142236","flight_duration_minutes":"20","reason_for_flight":"Suicidal Subject","location":"1900 Block Mason St.","geocoded_location":"1900 BLOCK OF MASON ST","point":{"type":"Point","coordinates":[-122.412817938,37.801685742]},"analysis_neighborhood":"Russian Hill","supervisor_district":"3","data_as_of":"2026-02-03T15:23:08.000","data_loaded_at":"2026-02-03T15:32:40.633"},{"date":"2024-08-01T00:00:00.000","case_cad_event_number":"242142345","flight_duration_minutes":"14","reason_for_flight":"Person with a gun","location":"600 Block Pacific Ave.","geocoded_location":"600 BLOCK OF PACIFIC AVE","point":{"type":"Point","coordinates":[-122.406257185,37.796981507]},"analysis_neighborhood":"Chinatown","supervisor_district":"3","data_as_of":"2026-02-03T15:23:08.000","data_loaded_at":"2026-02-03T15:32:40.633"},{"date":"2024-08-01T00:00:00.000","case_cad_event_number":"242142314","flight_duration_minutes":"13","reason_for_flight":"Traffic Stop","location":"Columbus Ave/Francisco St.","geocoded_location":"COLUMBUS AVE & FRANCISCO ST","point":{"type":"Point","coordinates":[-122.416065,37.804365]},"analysis_neighborhood":"Russian Hill","supervisor_district":"3","data_as_of":"2026-02-03T15:23:08.000","data_loaded_at":"2026-02-03T15:32:40.633"},{"date":"2024-08-01T00:00:00.000","case_cad_event_number":"242141755","flight_duration_minutes":"23","reason_for_flight":"Auto Boost","location":"Embarcadero/Bay","geocoded_location":"THE EMBARCADERO & BAY ST","point":{"type":"Point","coordinates":[-122.40567,37.806678]},"analysis_neighborhood":"North Beach","supervisor_district":"3","data_as_of":"2026-02-03T15:23:08.000","data_loaded_at":"2026-02-03T15:32:40.633"},{"date":"2024-08-01T00:00:00.000","case_cad_event_number":"240479089","flight_duration_minutes":"120","reason_for_flight":"Pursuant to a search warrant","location":"26000 block Dodge Ave , Hayward , Ca","geocoded_location":"26000 BLOCK OF DODGE AVE","point":{"type":"Point","coordinates":[-122.106166419,37.637343381]},"data_as_of":"2026-02-03T15:23:08.000","data_loaded_at":"2026-02-03T15:32:40.633"},{"date":"2024-08-02T00:00:00.000","case_cad_event_number":"242151504","flight_duration_minutes":"29","reason_for_flight":"Auto Boost","location":"2400 Block Larkin","geocoded_location":"2400 BLOCK OF LARKIN ST","point":{"type":"Point","coordinates":[-122.420989484,37.800381145]},"analysis_neighborhood":"Russian Hill","supervisor_district":"3","data_as_of":"2026-02-03T15:23:08.000","data_loaded_at":"2026-02-03T15:32:40.633"},{"date":"2024-08-02T00:00:00.000","case_cad_event_number":"242152463","flight_duration_minutes":"24","reason_for_flight":"Citizen Arrest","location":"300 Block Bay St.","geocoded_location":"300 BLOCK OF BAY ST","point":{"type":"Point","coordinates":[-122.412805808,37.805726675]},"analysis_neighborhood":"North Beach","supervisor_district":"3","data_as_of":"2026-02-03T15:23:08.000","data_loaded_at":"2026-02-03T15:32:40.633"},{"date":"2024-08-02T00:00:00.000","case_cad_event_number":"242151822","flight_duration_minutes":"57","reason_for_flight":"Well being check","location":"Pier 35","geocoded_location":"1454 THE EMBARCADERO","point":{"type":"Point","coordinates":[-122.40625,37.80731]},"analysis_neighborhood":"North Beach","supervisor_district":"3","data_as_of":"2026-02-03T15:23:08.000","data_loaded_at":"2026-02-03T15:32:40.633"},{"date":"2024-08-02T00:00:00.000","case_cad_event_number":"230766711","flight_duration_minutes":"15","reason_for_flight":"Plainclothes Op","location":"Unit Block Embarcadero Ctr","data_as_of":"2026-02-03T15:23:08.000","data_loaded_at":"2026-02-03T15:32:40.633"},{"date":"2024-08-06T00:00:00.000","case_cad_event_number":"240000M","flight_duration_minutes":"17","reason_for_flight":"Command authorized special event - Media","location":"600 block Columbus Ave","geocoded_location":"600 BLOCK OF COLUMBUS AVE","point":{"type":"Point","coordinates":[-122.410728339,37.800673444]},"analysis_neighborhood":"Chinatown","supervisor_district":"3","data_as_of":"2026-02-03T15:23:08.000","data_loaded_at":"2026-02-03T15:32:40.633"},{"date":"2024-08-09T00:00:00.000","case_cad_event_number":"242220662","flight_duration_minutes":"139","reason_for_flight":"Command authorized special event - OSL","location":"1200 block John F Kennedy Dr","geocoded_location":"1200 BLOCK OF JOHN F KENNEDY DR","point":{"type":"Point","coordinates":[-122.488084826,37.770811854]},"analysis_neighborhood":"Golden Gate Park","supervisor_district":"1","data_as_of":"2026-02-03T15:23:08.000","data_loaded_at":"2026-02-03T15:32:40.633"},{"date":"2024-08-10T00:00:00.000","case_cad_event_number":"242230755","flight_duration_minutes":"114","reason_for_flight":"Command authorized special event - OSL","location":"1200 block John F Kennedy Dr","geocoded_location":"1200 BLOCK OF JOHN F KENNEDY DR","point":{"type":"Point","coordinates":[-122.488084826,37.770811854]},"analysis_neighborhood":"Golden Gate Park","supervisor_district":"1","data_as_of":"2026-02-03T15:23:08.000","data_loaded_at":"2026-02-03T15:32:40.633"},{"date":"2024-08-11T00:00:00.000","case_cad_event_number":"242240971","flight_duration_minutes":"192","reason_for_flight":"Command authorized special event - OSL","location":"1200 block John F Kennedy Dr","geocoded_location":"1200 BLOCK OF JOHN F KENNEDY DR","point":{"type":"Point","coordinates":[-122.488084826,37.770811854]},"analysis_neighborhood":"Golden Gate Park","supervisor_district":"1","data_as_of":"2026-02-03T15:23:08.000","data_loaded_at":"2026-02-03T15:32:40.633"},{"date":"2024-08-14T00:00:00.000","case_cad_event_number":"242272349","flight_duration_minutes":"17","reason_for_flight":"Suspicious Vehicle","location":"Bay/Stockton","geocoded_location":"BAY ST & STOCKTON ST","point":{"type":"Point","coordinates":[-122.410323,37.80603]},"analysis_neighborhood":"North Beach","supervisor_district":"3","data_as_of":"2026-02-03T15:23:08.000","data_loaded_at":"2026-02-03T15:32:40.633"},{"date":"2024-08-14T00:00:00.000","case_cad_event_number":"242272885","flight_duration_minutes":"8","reason_for_flight":"Sideshows","location":"Green/Columbus","geocoded_location":"GREEN ST & COLUMBUS AVE","point":{"type":"Point","coordinates":[-122.409027,37.799496]},"analysis_neighborhood":"Chinatown","supervisor_district":"3","data_as_of":"2026-02-03T15:23:08.000","data_loaded_at":"2026-02-03T15:32:40.633"},{"date":"2024-08-14T00:00:00.000","case_cad_event_number":"242272798","flight_duration_minutes":"27","reason_for_flight":"Assist US Park Police","location":"Jefferson/Hyde","geocoded_location":"JEFFERSON ST & HYDE ST","point":{"type":"Point","coordinates":[-122.4207585,37.807596]},"analysis_neighborhood":"Russian Hill","supervisor_district":"2","data_as_of":"2026-02-03T15:23:08.000","data_loaded_at":"2026-02-03T15:32:40.633"},{"date":"2024-08-15T00:00:00.000","case_cad_event_number":"242282683","flight_duration_minutes":"13","reason_for_flight":"Vandalism","location":"Pier 35","geocoded_location":"1454 THE EMBARCADERO","point":{"type":"Point","coordinates":[-122.40625,37.80731]},"analysis_neighborhood":"North Beach","supervisor_district":"3","data_as_of":"2026-02-03T15:23:08.000","data_loaded_at":"2026-02-03T15:32:40.633"},{"date":"2024-08-15T00:00:00.000","case_cad_event_number":"242281616","flight_duration_minutes":"17","reason_for_flight":"Threats","location":"Pier 1","data_as_of":"2026-02-03T15:23:08.000","data_loaded_at":"2026-02-03T15:32:40.633"},{"date":"2024-08-15T00:00:00.000","case_cad_event_number":"242282905","flight_duration_minutes":"26","reason_for_flight":"Person with a gun","location":"Pier 39","data_as_of":"2026-02-03T15:23:08.000","data_loaded_at":"2026-02-03T15:32:40.633"},{"date":"2024-08-16T00:00:00.000","case_cad_event_number":"242291856","flight_duration_minutes":"14","reason_for_flight":"Trespasser","location":"300 block of Jefferson","geocoded_location":"300 BLOCK OF JEFFERSON ST","point":{"type":"Point","coordinates":[-122.418299686,37.807911789]},"analysis_neighborhood":"North Beach","supervisor_district":"3","data_as_of":"2026-02-03T15:23:08.000","data_loaded_at":"2026-02-03T15:32:40.633"},{"date":"2024-08-16T00:00:00.000","case_cad_event_number":"242291856","flight_duration_minutes":"19","reason_for_flight":"Trespasser","location":"300 block of Jefferson","geocoded_location":"300 BLOCK OF JEFFERSON ST","point":{"type":"Point","coordinates":[-122.418299686,37.807911789]},"analysis_neighborhood":"North Beach","supervisor_district":"3","data_as_of":"2026-02-03T15:23:08.000","data_loaded_at":"2026-02-03T15:32:40.633"},{"date":"2024-08-16T00:00:00.000","case_cad_event_number":"242292349","flight_duration_minutes":"20","reason_for_flight":"Suspicious Vehicle - Dirt Bikes","location":"Powell/Geary","geocoded_location":"POWELL ST & GEARY ST","point":{"type":"Point","coordinates":[-122.4082395,37.787364]},"analysis_neighborhood":"Tenderloin","supervisor_district":"3","data_as_of":"2026-02-03T15:23:08.000","data_loaded_at":"2026-02-03T15:32:40.633"},{"date":"2024-08-16T00:00:00.000","case_cad_event_number":"242292424","flight_duration_minutes":"15","reason_for_flight":"Assault/Battery","location":"Washington/Embarcadero","geocoded_location":"WASHINGTON ST & THE EMBARCADERO","point":{"type":"Point","coordinates":[-122.395419,37.796688]},"analysis_neighborhood":"Financial District/South Beach","supervisor_district":"3","data_as_of":"2026-02-03T15:23:08.000","data_loaded_at":"2026-02-03T15:32:40.633"},{"date":"2024-08-21T00:00:00.000","case_cad_event_number":"242342526","flight_duration_minutes":"4","reason_for_flight":"Recover Missing Vehicle","location":"2300 block of Taylor","geocoded_location":"2300 BLOCK OF TAYLOR ST","point":{"type":"Point","coordinates":[-122.415030505,37.804304523]},"analysis_neighborhood":"North Beach","supervisor_district":"3","data_as_of":"2026-02-03T15:23:08.000","data_loaded_at":"2026-02-03T15:32:40.633"},{"date":"2024-08-21T00:00:00.000","case_cad_event_number":"242342815","flight_duration_minutes":"17","reason_for_flight":"Suspicious Vehicle - Dirt Bikes","location":"Larkin/Northpoint","geocoded_location":"LARKIN ST & NORTH POINT ST","point":{"type":"Point","coordinates":[-122.4220185,37.805499]},"analysis_neighborhood":"Russian Hill","supervisor_district":"2","data_as_of":"2026-02-03T15:23:08.000","data_loaded_at":"2026-02-03T15:32:40.633"},{"date":"2024-08-21T00:00:00.000","case_cad_event_number":"242341690","flight_duration_minutes":"18","reason_for_flight":"Shooting","location":"Northpoint/Polk","geocoded_location":"NORTH POINT ST & POLK ST","point":{"type":"Point","coordinates":[-122.42367,37.805292]},"analysis_neighborhood":"Russian Hill","supervisor_district":"2","data_as_of":"2026-02-03T15:23:08.000","data_loaded_at":"2026-02-03T15:32:40.633"},{"date":"2024-08-21T00:00:00.000","case_cad_event_number":"242341690","flight_duration_minutes":"20","reason_for_flight":"Shooting","location":"Northpoint/Polk","geocoded_location":"NORTH POINT ST & POLK ST","point":{"type":"Point","coordinates":[-122.42367,37.805292]},"analysis_neighborhood":"Russian Hill","supervisor_district":"2","data_as_of":"2026-02-03T15:23:08.000","data_loaded_at":"2026-02-03T15:32:40.633"},{"date":"2024-08-21T00:00:00.000","case_cad_event_number":"242341690","flight_duration_minutes":"21","reason_for_flight":"Shooting","location":"Northpoint/Polk","geocoded_location":"NORTH POINT ST & POLK ST","point":{"type":"Point","coordinates":[-122.42367,37.805292]},"analysis_neighborhood":"Russian Hill","supervisor_district":"2","data_as_of":"2026-02-03T15:23:08.000","data_loaded_at":"2026-02-03T15:32:40.633"},{"date":"2024-08-21T00:00:00.000","case_cad_event_number":"242341690","flight_duration_minutes":"23","reason_for_flight":"Shooting","location":"Northpoint/Polk","geocoded_location":"NORTH POINT ST & POLK ST","point":{"type":"Point","coordinates":[-122.42367,37.805292]},"analysis_neighborhood":"Russian Hill","supervisor_district":"2","data_as_of":"2026-02-03T15:23:08.000","data_loaded_at":"2026-02-03T15:32:40.633"},{"date":"2024-08-22T00:00:00.000","case_cad_event_number":"242351976","flight_duration_minutes":"16","reason_for_flight":"Vandalism","location":"100 Block jefferson","geocoded_location":"100 BLOCK OF JEFFERSON ST","point":{"type":"Point","coordinates":[-122.41498408,37.808322322]},"analysis_neighborhood":"North Beach","supervisor_district":"3","data_as_of":"2026-02-03T15:23:08.000","data_loaded_at":"2026-02-03T15:32:40.633"},{"date":"2024-08-22T00:00:00.000","case_cad_event_number":"242351976","flight_duration_minutes":"20","reason_for_flight":"Vandalism","location":"100 Block jefferson","geocoded_location":"100 BLOCK OF JEFFERSON ST","point":{"type":"Point","coordinates":[-122.41498408,37.808322322]},"analysis_neighborhood":"North Beach","supervisor_district":"3","data_as_of":"2026-02-03T15:23:08.000","data_loaded_at":"2026-02-03T15:32:40.633"},{"date":"2024-08-22T00:00:00.000","case_cad_event_number":"240526840","flight_duration_minutes":"17","reason_for_flight":"Auto Boost","location":"Green/Embarcadero","geocoded_location":"GREEN ST & THE EMBARCADERO","point":{"type":"Point","coordinates":[-122.399145,37.8009]},"analysis_neighborhood":"Financial District/South Beach","supervisor_district":"3","data_as_of":"2026-02-03T15:23:08.000","data_loaded_at":"2026-02-03T15:32:40.633"},{"date":"2024-08-22T00:00:00.000","case_cad_event_number":"242351784","flight_duration_minutes":"8","reason_for_flight":"Auto Boost","location":"leavenworth/lombard","geocoded_location":"LEAVENWORTH ST & LOMBARD ST","point":{"type":"Point","coordinates":[-122.4179775,37.802205]},"analysis_neighborhood":"Russian Hill","supervisor_district":"3","data_as_of":"2026-02-03T15:23:08.000","data_loaded_at":"2026-02-03T15:32:40.633"},{"date":"2024-08-22T00:00:00.000","case_cad_event_number":"245350075","flight_duration_minutes":"24","reason_for_flight":"Plain Clothes Op - Caravan/Robbery Abatement","location":"Out of SF","data_as_of":"2026-02-03T15:23:08.000","data_loaded_at":"2026-02-03T15:32:40.633"},{"date":"2024-08-22T00:00:00.000","case_cad_event_number":"242351684","flight_duration_minutes":"20","reason_for_flight":"Emergency Call Open Line","location":"Pier 1","data_as_of":"2026-02-03T15:23:08.000","data_loaded_at":"2026-02-03T15:32:40.633"},{"date":"2024-08-23T00:00:00.000","case_cad_event_number":"242362277","flight_duration_minutes":"8","reason_for_flight":"Alarm","location":"Pier 45","data_as_of":"2026-02-03T15:23:08.000","data_loaded_at":"2026-02-03T15:32:40.633"},{"date":"2024-08-23T00:00:00.000","case_cad_event_number":"242361670","flight_duration_minutes":"7","reason_for_flight":"Emergency Call Open Line","location":"Unit Block of Jefferson St","data_as_of":"2026-02-03T15:23:08.000","data_loaded_at":"2026-02-03T15:32:40.633"},{"date":"2024-08-24T00:00:00.000","case_cad_event_number":"240531128","flight_duration_minutes":"23","reason_for_flight":"Threats to a Firefighter","location":"1900 block of Taylor","geocoded_location":"1900 BLOCK OF TAYLOR ST","point":{"type":"Point","coordinates":[-122.414256817,37.800465051]},"analysis_neighborhood":"Russian Hill","supervisor_district":"3","data_as_of":"2026-02-03T15:23:08.000","data_loaded_at":"2026-02-03T15:32:40.633"},{"date":"2024-08-24T00:00:00.000","case_cad_event_number":"242372062","flight_duration_minutes":"18","reason_for_flight":"Peson with a knife","location":"Ferry Building","data_as_of":"2026-02-03T15:23:08.000","data_loaded_at":"2026-02-03T15:32:40.633"},{"date":"2024-08-24T00:00:00.000","case_cad_event_number":"242372361","flight_duration_minutes":"17","reason_for_flight":"Auto Boost","location":"Pier 17","data_as_of":"2026-02-03T15:23:08.000","data_loaded_at":"2026-02-03T15:32:40.633"},{"date":"2024-08-25T00:00:00.000","case_cad_event_number":"240533867","flight_duration_minutes":"21","reason_for_flight":"Reckless Driving","location":"Columbus/Broadway","geocoded_location":"COLUMBUS AVE & BROADWAY","point":{"type":"Point","coordinates":[-122.4066825,37.797867]},"analysis_neighborhood":"Chinatown","supervisor_district":"3","data_as_of":"2026-02-03T15:23:08.000","data_loaded_at":"2026-02-03T15:32:40.633"},{"date":"2024-08-25T00:00:00.000","case_cad_event_number":"242382245","flight_duration_minutes":"21","reason_for_flight":"Vehicle failing to yield","location":"Columbus/Powell","geocoded_location":"COLUMBUS AVE & POWELL ST","point":{"type":"Point","coordinates":[-122.4109665,37.800837]},"analysis_neighborhood":"Chinatown","supervisor_district":"3","data_as_of":"2026-02-03T15:23:08.000","data_loaded_at":"2026-02-03T15:32:40.633"},{"date":"2024-08-25T00:00:00.000","case_cad_event_number":"242382820","flight_duration_minutes":"17","reason_for_flight":"Armed Robbery, 911 Call","location":"Franklin/Ofarrell","geocoded_location":"FRANKLIN ST & OFARRELL ST","point":{"type":"Point","coordinates":[-122.422851,37.784556]},"analysis_neighborhood":"Western Addition","supervisor_district":"2","data_as_of":"2026-02-03T15:23:08.000","data_loaded_at":"2026-02-03T15:32:40.633"},{"date":"2024-08-25T00:00:00.000","case_cad_event_number":"242381982","flight_duration_minutes":"9","reason_for_flight":"Sideshow w/motorcycles","location":"Lombard/Leavenworth","geocoded_location":"LOMBARD ST & LEAVENWORTH ST","point":{"type":"Point","coordinates":[-122.4179775,37.802205]},"analysis_neighborhood":"Russian Hill","supervisor_district":"3","data_as_of":"2026-02-03T15:23:08.000","data_loaded_at":"2026-02-03T15:32:40.633"},{"date":"2024-08-25T00:00:00.000","case_cad_event_number":"242381982","flight_duration_minutes":"14","reason_for_flight":"Sideshow w/motorcycles","location":"Lombard/Leavenworth","geocoded_location":"LOMBARD ST & LEAVENWORTH ST","point":{"type":"Point","coordinates":[-122.4179775,37.802205]},"analysis_neighborhood":"Russian Hill","supervisor_district":"3","data_as_of":"2026-02-03T15:23:08.000","data_loaded_at":"2026-02-03T15:32:40.633"},{"date":"2024-08-25T00:00:00.000","case_cad_event_number":"242381982","flight_duration_minutes":"24","reason_for_flight":"Sideshow w/motorcycles","location":"Lombard/Leavenworth","geocoded_location":"LOMBARD ST & LEAVENWORTH ST","point":{"type":"Point","coordinates":[-122.4179775,37.802205]},"analysis_neighborhood":"Russian Hill","supervisor_district":"3","data_as_of":"2026-02-03T15:23:08.000","data_loaded_at":"2026-02-03T15:32:40.633"},{"date":"2024-08-25T00:00:00.000","case_cad_event_number":"242381746","flight_duration_minutes":"20","reason_for_flight":"911 Call, Subject making threats","location":"Steuart/Don Chee Way","geocoded_location":"STEUART ST & DON CHEE WAY","point":{"type":"Point","coordinates":[-122.3938755,37.793781]},"analysis_neighborhood":"Financial District/South Beach","supervisor_district":"6","data_as_of":"2026-02-03T15:23:08.000","data_loaded_at":"2026-02-03T15:32:40.633"},{"date":"2024-08-25T00:00:00.000","case_cad_event_number":"242382119","flight_duration_minutes":"22","reason_for_flight":"911 Call, vehicles driving on sidewalks","location":"Ferry Building","data_as_of":"2026-02-03T15:23:08.000","data_loaded_at":"2026-02-03T15:32:40.633"},{"date":"2024-08-25T00:00:00.000","case_cad_event_number":"242381550","flight_duration_minutes":"12","reason_for_flight":"Subject with a Restraining Order Violation","location":"Unit block of Jackson Street","data_as_of":"2026-02-03T15:23:08.000","data_loaded_at":"2026-02-03T15:32:40.633"},{"date":"2024-08-29T00:00:00.000","case_cad_event_number":"242422736","flight_duration_minutes":"15","reason_for_flight":"Drug Dealing","location":"Bay/Embarcadero","geocoded_location":"BAY ST & THE EMBARCADERO","point":{"type":"Point","coordinates":[-122.40567,37.806678]},"analysis_neighborhood":"North Beach","supervisor_district":"3","data_as_of":"2026-02-03T15:23:08.000","data_loaded_at":"2026-02-03T15:32:40.633"},{"date":"2024-08-29T00:00:00.000","case_cad_event_number":"242422517","flight_duration_minutes":"18","reason_for_flight":"Suspicous Person, intent to defraud","location":"Unit Block Broadway","data_as_of":"2026-02-03T15:23:08.000","data_loaded_at":"2026-02-03T15:32:40.633"},{"date":"2024-08-30T00:00:00.000","case_cad_event_number":"242432984","flight_duration_minutes":"19","reason_for_flight":"Fight no weapons","location":"100 block Jefferson","geocoded_location":"100 BLOCK OF JEFFERSON ST","point":{"type":"Point","coordinates":[-122.41498408,37.808322322]},"analysis_neighborhood":"North Beach","supervisor_district":"3","data_as_of":"2026-02-03T15:23:08.000","data_loaded_at":"2026-02-03T15:32:40.633"},{"date":"2024-08-30T00:00:00.000","case_cad_event_number":"242431850","flight_duration_minutes":"16","reason_for_flight":"Fleeing Shoplifting Suspect","location":"1300 Block Stockton Street","geocoded_location":"1300 BLOCK OF STOCKTON ST","point":{"type":"Point","coordinates":[-122.408727066,37.79811333]},"analysis_neighborhood":"Chinatown","supervisor_district":"3","data_as_of":"2026-02-03T15:23:08.000","data_loaded_at":"2026-02-03T15:32:40.633"},{"date":"2024-08-30T00:00:00.000","case_cad_event_number":"242452201","flight_duration_minutes":"13","reason_for_flight":"Emergency Call Open Line","location":"Bay/Hyde","geocoded_location":"BAY ST & HYDE ST","point":{"type":"Point","coordinates":[-122.4201915,37.804797]},"analysis_neighborhood":"Russian Hill","supervisor_district":"2","data_as_of":"2026-02-03T15:23:08.000","data_loaded_at":"2026-02-03T15:32:40.633"},{"date":"2024-08-30T00:00:00.000","case_cad_event_number":"242432329","flight_duration_minutes":"11","reason_for_flight":"Suspicous Person","location":"Bernard/Leavenworth","geocoded_location":"BERNARD ST & LEAVENWORTH ST","point":{"type":"Point","coordinates":[-122.4167535,37.796112]},"analysis_neighborhood":"Russian Hill","supervisor_district":"3","data_as_of":"2026-02-03T15:23:08.000","data_loaded_at":"2026-02-03T15:32:40.633"},{"date":"2024-08-30T00:00:00.000","case_cad_event_number":"242432017","flight_duration_minutes":"12","reason_for_flight":"Person with a knife","location":"Broadway/Kearny","geocoded_location":"BROADWAY & KEARNY ST","point":{"type":"Point","coordinates":[-122.4054855,37.79802]},"analysis_neighborhood":"North Beach","supervisor_district":"3","data_as_of":"2026-02-03T15:23:08.000","data_loaded_at":"2026-02-03T15:32:40.633"},{"date":"2024-08-30T00:00:00.000","case_cad_event_number":"242432862","flight_duration_minutes":"12","reason_for_flight":"Vehicle Accident with Injuries","location":"Pier 39","data_as_of":"2026-02-03T15:23:08.000","data_loaded_at":"2026-02-03T15:32:40.633"},{"date":"2024-08-30T00:00:00.000","case_cad_event_number":"242432120","flight_duration_minutes":"16","reason_for_flight":"Peson with a knife","location":"Unit Block Embarcadero Center","data_as_of":"2026-02-03T15:23:08.000","data_loaded_at":"2026-02-03T15:32:40.633"},{"date":"2024-09-04T00:00:00.000","case_cad_event_number":"242481785","flight_duration_minutes":"10","reason_for_flight":"Assault","location":"GRANT/FILBERT","geocoded_location":"GRANT AVE & FILBERT ST","point":{"type":"Point","coordinates":[-122.407785,37.801575]},"analysis_neighborhood":"North Beach","supervisor_district":"3","data_as_of":"2026-02-03T15:23:08.000","data_loaded_at":"2026-02-03T15:32:40.633"},{"date":"2024-09-05T00:00:00.000","case_cad_event_number":"242493078","flight_duration_minutes":"58","reason_for_flight":"Suspicious Person","location":"PIONEER PARK","data_as_of":"2026-02-03T15:23:08.000","data_loaded_at":"2026-02-03T15:32:40.633"},{"date":"2024-09-06T00:00:00.000","case_cad_event_number":"242501534","flight_duration_minutes":"22","reason_for_flight":"Trespasser","location":"HYDE/BAY","geocoded_location":"HYDE ST & BAY ST","point":{"type":"Point","coordinates":[-122.4201915,37.804797]},"analysis_neighborhood":"Russian Hill","supervisor_district":"2","data_as_of":"2026-02-03T15:23:08.000","data_loaded_at":"2026-02-03T15:32:40.633"},{"date":"2024-09-06T00:00:00.000","case_cad_event_number":"242502734","flight_duration_minutes":"14","reason_for_flight":"Vandalism","location":"STOCKTON/BEACH","geocoded_location":"STOCKTON ST & BEACH ST","point":{"type":"Point","coordinates":[-122.4106965,37.807893]},"analysis_neighborhood":"North Beach","supervisor_district":"3","data_as_of":"2026-02-03T15:23:08.000","data_loaded_at":"2026-02-03T15:32:40.633"},{"date":"2024-09-07T00:00:00.000","case_cad_event_number":"242512070","flight_duration_minutes":"22","reason_for_flight":"Suicidal Subject","location":"STOCKTON/CHESTNUT","geocoded_location":"STOCKTON ST & CHESTNUT ST","point":{"type":"Point","coordinates":[-122.4099495,37.804176]},"analysis_neighborhood":"North Beach","supervisor_district":"3","data_as_of":"2026-02-03T15:23:08.000","data_loaded_at":"2026-02-03T15:32:40.633"},{"date":"2024-09-09T00:00:00.000","case_cad_event_number":"242531304","flight_duration_minutes":"10","reason_for_flight":"Emergency Call Drop","location":"900 Block KEARNY ST","geocoded_location":"900 BLOCK OF KEARNY ST","point":{"type":"Point","coordinates":[-122.40531659,37.797002084]},"analysis_neighborhood":"Chinatown","supervisor_district":"3","data_as_of":"2026-02-03T15:23:08.000","data_loaded_at":"2026-02-03T15:32:40.633"},{"date":"2024-09-09T00:00:00.000","case_cad_event_number":"242532828","flight_duration_minutes":"39","reason_for_flight":"Assault","location":"FILBERT/KEARNY","geocoded_location":"FILBERT ST & KEARNY ST","point":{"type":"Point","coordinates":[-122.4063,37.801773]},"analysis_neighborhood":"North Beach","supervisor_district":"3","data_as_of":"2026-02-03T15:23:08.000","data_loaded_at":"2026-02-03T15:32:40.633"},{"date":"2024-09-09T00:00:00.000","case_cad_event_number":"242502734","flight_duration_minutes":"14","reason_for_flight":"Vandalism","location":"JEFFERSON/MASON","geocoded_location":"JEFFERSON ST & MASON ST","point":{"type":"Point","coordinates":[-122.4141795,37.808424]},"analysis_neighborhood":"North Beach","supervisor_district":"3","data_as_of":"2026-02-03T15:23:08.000","data_loaded_at":"2026-02-03T15:32:40.633"},{"date":"2024-09-09T00:00:00.000","case_cad_event_number":"242512145","flight_duration_minutes":"12","reason_for_flight":"Reckless Driving","location":"NORTHPOINT/LARKIN","geocoded_location":"NORTH POINT ST & LARKIN ST","point":{"type":"Point","coordinates":[-122.4220185,37.805499]},"analysis_neighborhood":"Russian Hill","supervisor_district":"2","data_as_of":"2026-02-03T15:23:08.000","data_loaded_at":"2026-02-03T15:32:40.633"},{"date":"2024-09-09T00:00:00.000","case_cad_event_number":"242531045","flight_duration_minutes":"22","reason_for_flight":"Theft","location":"PIER 39","data_as_of":"2026-02-03T15:23:08.000","data_loaded_at":"2026-02-03T15:32:40.633"},{"date":"2024-09-11T00:00:00.000","case_cad_event_number":"240572956","flight_duration_minutes":"20","reason_for_flight":"Auto Burglary","location":"2300 Block Stockton St","geocoded_location":"2300 BLOCK OF STOCKTON ST","point":{"type":"Point","coordinates":[-122.410605772,37.807437146]},"analysis_neighborhood":"North Beach","supervisor_district":"3","data_as_of":"2026-02-03T15:23:08.000","data_loaded_at":"2026-02-03T15:32:40.633"},{"date":"2024-09-11T00:00:00.000","case_cad_event_number":"242443201","flight_duration_minutes":"19","reason_for_flight":"Auto Burglary","location":"GRANT/BEACH","geocoded_location":"GRANT AVE & BEACH ST","point":{"type":"Point","coordinates":[-122.409063,37.808118]},"analysis_neighborhood":"North Beach","supervisor_district":"3","data_as_of":"2026-02-03T15:23:08.000","data_loaded_at":"2026-02-03T15:32:40.633"},{"date":"2024-09-12T00:00:00.000","case_cad_event_number":"242442828","flight_duration_minutes":"12","reason_for_flight":"Suspicious Person","location":"2600 Block LARKIN","geocoded_location":"2600 BLOCK OF LARKIN ST","point":{"type":"Point","coordinates":[-122.421369814,37.802242963]},"analysis_neighborhood":"Russian Hill","supervisor_district":"3","data_as_of":"2026-02-03T15:23:08.000","data_loaded_at":"2026-02-03T15:32:40.633"},{"date":"2024-09-12T00:00:00.000","case_cad_event_number":"242561893","flight_duration_minutes":"9","reason_for_flight":"Indecent Exposure","location":"400 Block FRANCISCO","geocoded_location":"400 BLOCK OF FRANCISCO ST","point":{"type":"Point","coordinates":[-122.412625902,37.804795094]},"analysis_neighborhood":"North Beach","supervisor_district":"3","data_as_of":"2026-02-03T15:23:08.000","data_loaded_at":"2026-02-03T15:32:40.633"},{"date":"2024-09-12T00:00:00.000","case_cad_event_number":"240544228","flight_duration_minutes":"30","reason_for_flight":"Pursuant to a search warrant","location":"5500 Block Mission St.","geocoded_location":"5500 BLOCK OF MISSION ST","point":{"type":"Point","coordinates":[-122.445376823,37.712043799]},"analysis_neighborhood":"Outer Mission","supervisor_district":"11","data_as_of":"2026-02-03T15:23:08.000","data_loaded_at":"2026-02-03T15:32:40.633"},{"date":"2024-09-12T00:00:00.000","case_cad_event_number":"242552877","flight_duration_minutes":"6","reason_for_flight":"Person with a knife","location":"CALIFORNIA/LEAVENWORTH","geocoded_location":"CALIFORNIA ST & LEAVENWORTH ST","point":{"type":"Point","coordinates":[-122.4157635,37.791207]},"analysis_neighborhood":"Nob Hill","supervisor_district":"3","data_as_of":"2026-02-03T15:23:08.000","data_loaded_at":"2026-02-03T15:32:40.633"},{"date":"2024-09-12T00:00:00.000","case_cad_event_number":"242561963","flight_duration_minutes":"11","reason_for_flight":"Missing Person","location":"EMBARCADERO/WASHINGTON","geocoded_location":"THE EMBARCADERO & WASHINGTON ST","point":{"type":"Point","coordinates":[-122.395419,37.796688]},"analysis_neighborhood":"Financial District/South Beach","supervisor_district":"3","data_as_of":"2026-02-03T15:23:08.000","data_loaded_at":"2026-02-03T15:32:40.633"},{"date":"2024-09-13T00:00:00.000","case_cad_event_number":"24257150","flight_duration_minutes":"19","reason_for_flight":"Assault","location":"700 Block JACKSON","geocoded_location":"700 BLOCK OF JACKSON ST","point":{"type":"Point","coordinates":[-122.40751275,37.795923]},"analysis_neighborhood":"Chinatown","supervisor_district":"3","data_as_of":"2026-02-03T15:23:08.000","data_loaded_at":"2026-02-03T15:32:40.633"},{"date":"2024-09-13T00:00:00.000","case_cad_event_number":"242572814","flight_duration_minutes":"29","reason_for_flight":"Auto Burglary","location":"BEACH/GRANT","geocoded_location":"BEACH ST & GRANT AVE","point":{"type":"Point","coordinates":[-122.409063,37.808118]},"analysis_neighborhood":"North Beach","supervisor_district":"3","data_as_of":"2026-02-03T15:23:08.000","data_loaded_at":"2026-02-03T15:32:40.633"},{"date":"2024-09-13T00:00:00.000","case_cad_event_number":"242572025","flight_duration_minutes":"17","reason_for_flight":"Vehicle Blocking Traffic","location":"COLUMBUS/STOCKTON","geocoded_location":"COLUMBUS AVE & STOCKTON ST","point":{"type":"Point","coordinates":[-122.409027,37.799496]},"analysis_neighborhood":"Chinatown","supervisor_district":"3","data_as_of":"2026-02-03T15:23:08.000","data_loaded_at":"2026-02-03T15:32:40.633"},{"date":"2024-09-13T00:00:00.000","case_cad_event_number":"242571627","flight_duration_minutes":"12","reason_for_flight":"Suspicious Person","location":"EMBARCADERO/BROADWAY","geocoded_location":"THE EMBARCADERO & BROADWAY","point":{"type":"Point","coordinates":[-122.3976825,37.799235]},"analysis_neighborhood":"Financial District/South Beach","supervisor_district":"3","data_as_of":"2026-02-03T15:23:08.000","data_loaded_at":"2026-02-03T15:32:40.633"},{"date":"2024-09-13T00:00:00.000","case_cad_event_number":"242571605","flight_duration_minutes":"12","reason_for_flight":"Vehicle Blocking Traffic","location":"UNION/GRANT","geocoded_location":"UNION ST & GRANT AVE","point":{"type":"Point","coordinates":[-122.407596,37.800639]},"analysis_neighborhood":"North Beach","supervisor_district":"3","data_as_of":"2026-02-03T15:23:08.000","data_loaded_at":"2026-02-03T15:32:40.633"},{"date":"2024-09-13T00:00:00.000","case_cad_event_number":"242571919","flight_duration_minutes":"6","reason_for_flight":"Suspicious Person","location":"Unit Block of Ringold St","data_as_of":"2026-02-03T15:23:08.000","data_loaded_at":"2026-02-03T15:32:40.633"},{"date":"2024-09-13T00:00:00.000","case_cad_event_number":"242571919","flight_duration_minutes":"143","reason_for_flight":"Robbery","location":"Unit Block Sheridan St","data_as_of":"2026-02-03T15:23:08.000","data_loaded_at":"2026-02-03T15:32:40.633"},{"date":"2024-09-17T00:00:00.000","case_cad_event_number":"240000M-33","flight_duration_minutes":"116","reason_for_flight":"Command Authorized Special Event -DF24","location":"600 Block Folsom St","geocoded_location":"600 BLOCK OF FOLSOM ST","point":{"type":"Point","coordinates":[-122.39774595,37.784736523]},"analysis_neighborhood":"Financial District/South Beach","supervisor_district":"6","data_as_of":"2026-02-03T15:23:08.000","data_loaded_at":"2026-02-03T15:32:40.633"},{"date":"2024-09-17T00:00:00.000","case_cad_event_number":"210054M-PC","flight_duration_minutes":"87","reason_for_flight":"Command Authorized Special Event -DF24","location":"700 Block Bush St","geocoded_location":"700 BLOCK OF BUSH ST","point":{"type":"Point","coordinates":[-122.41055688,37.789941837]},"analysis_neighborhood":"Nob Hill","supervisor_district":"3","data_as_of":"2026-02-03T15:23:08.000","data_loaded_at":"2026-02-03T15:32:40.633"},{"date":"2024-09-18T00:00:00.000","case_cad_event_number":"242623039","flight_duration_minutes":"10","reason_for_flight":"Suspicious Vehicle","location":"2300 Block Stockton St","geocoded_location":"2300 BLOCK OF STOCKTON ST","point":{"type":"Point","coordinates":[-122.410605772,37.807437146]},"analysis_neighborhood":"North Beach","supervisor_district":"3","data_as_of":"2026-02-03T15:23:08.000","data_loaded_at":"2026-02-03T15:32:40.633"},{"date":"2024-09-18T00:00:00.000","case_cad_event_number":"240000M-33","flight_duration_minutes":"58","reason_for_flight":"Command Authorized Special Event -DF24","location":"600 Block Folsom St","geocoded_location":"600 BLOCK OF FOLSOM ST","point":{"type":"Point","coordinates":[-122.39774595,37.784736523]},"analysis_neighborhood":"Financial District/South Beach","supervisor_district":"6","data_as_of":"2026-02-03T15:23:08.000","data_loaded_at":"2026-02-03T15:32:40.633"},{"date":"2024-09-18T00:00:00.000","case_cad_event_number":"242621783","flight_duration_minutes":"310","reason_for_flight":"Auto Burglary","location":"LOMBARD/LEAVENWORTH","geocoded_location":"LOMBARD ST & LEAVENWORTH ST","point":{"type":"Point","coordinates":[-122.4179775,37.802205]},"analysis_neighborhood":"Russian Hill","supervisor_district":"3","data_as_of":"2026-02-03T15:23:08.000","data_loaded_at":"2026-02-03T15:32:40.633"},{"date":"2024-09-19T00:00:00.000","case_cad_event_number":"242632748","flight_duration_minutes":"11","reason_for_flight":"Emergency Call Open Line","location":"500 Block BEACH","geocoded_location":"500 BLOCK OF BEACH ST","point":{"type":"Point","coordinates":[-122.418113512,37.806968676]},"analysis_neighborhood":"North Beach","supervisor_district":"3","data_as_of":"2026-02-03T15:23:08.000","data_loaded_at":"2026-02-03T15:32:40.633"},{"date":"2024-09-19T00:00:00.000","case_cad_event_number":"240000M-33","flight_duration_minutes":"69","reason_for_flight":"Command Authorized Special Event -DF24","location":"600 Block Folsom St","geocoded_location":"600 BLOCK OF FOLSOM ST","point":{"type":"Point","coordinates":[-122.39774595,37.784736523]},"analysis_neighborhood":"Financial District/South Beach","supervisor_district":"6","data_as_of":"2026-02-03T15:23:08.000","data_loaded_at":"2026-02-03T15:32:40.633"},{"date":"2024-09-19T00:00:00.000","case_cad_event_number":"242642012","flight_duration_minutes":"94","reason_for_flight":"Auto Burglary","location":"LOMBARD/LEAVENWORTH","geocoded_location":"LOMBARD ST & LEAVENWORTH ST","point":{"type":"Point","coordinates":[-122.4179775,37.802205]},"analysis_neighborhood":"Russian Hill","supervisor_district":"3","data_as_of":"2026-02-03T15:23:08.000","data_loaded_at":"2026-02-03T15:32:40.633"},{"date":"2024-09-19T00:00:00.000","case_cad_event_number":"242632780","flight_duration_minutes":"12","reason_for_flight":"Assault","location":"PIER 39","data_as_of":"2026-02-03T15:23:08.000","data_loaded_at":"2026-02-03T15:32:40.633"},{"date":"2024-09-20T00:00:00.000","case_cad_event_number":"240000M-33","flight_duration_minutes":"7","reason_for_flight":"Command Authorized Special Event -DF24","location":"600 Block Folsom St","geocoded_location":"600 BLOCK OF FOLSOM ST","point":{"type":"Point","coordinates":[-122.39774595,37.784736523]},"analysis_neighborhood":"Financial District/South Beach","supervisor_district":"6","data_as_of":"2026-02-03T15:23:08.000","data_loaded_at":"2026-02-03T15:32:40.633"},{"date":"2024-09-20T00:00:00.000","case_cad_event_number":"242651773","flight_duration_minutes":"21","reason_for_flight":"Reckless Driving","location":"BAY/TAYLOR","geocoded_location":"BAY ST & TAYLOR ST","point":{"type":"Point","coordinates":[-122.415255,37.805418]},"analysis_neighborhood":"North Beach","supervisor_district":"3","data_as_of":"2026-02-03T15:23:08.000","data_loaded_at":"2026-02-03T15:32:40.633"},{"date":"2024-09-20T00:00:00.000","case_cad_event_number":"242641972","flight_duration_minutes":"14","reason_for_flight":"Assault","location":"CLAY/DRUMM","geocoded_location":"CLAY ST & DRUMM ST","point":{"type":"Point","coordinates":[-122.396787,37.795473]},"analysis_neighborhood":"Financial District/South Beach","supervisor_district":"3","data_as_of":"2026-02-03T15:23:08.000","data_loaded_at":"2026-02-03T15:32:40.633"},{"date":"2024-09-20T00:00:00.000","case_cad_event_number":"242643204","flight_duration_minutes":"9","reason_for_flight":"Reckless Driving","location":"GREEN/COLUMBUS","geocoded_location":"GREEN ST & COLUMBUS AVE","point":{"type":"Point","coordinates":[-122.409027,37.799496]},"analysis_neighborhood":"Chinatown","supervisor_district":"3","data_as_of":"2026-02-03T15:23:08.000","data_loaded_at":"2026-02-03T15:32:40.633"},{"date":"2024-09-20T00:00:00.000","case_cad_event_number":"242642012","flight_duration_minutes":"219","reason_for_flight":"Auto Burglary","location":"LOMBARD/LEAVENWORTH","geocoded_location":"LOMBARD ST & LEAVENWORTH ST","point":{"type":"Point","coordinates":[-122.4179775,37.802205]},"analysis_neighborhood":"Russian Hill","supervisor_district":"3","data_as_of":"2026-02-03T15:23:08.000","data_loaded_at":"2026-02-03T15:32:40.633"},{"date":"2024-09-21T00:00:00.000","case_cad_event_number":"242651773","flight_duration_minutes":"42","reason_for_flight":"Reckless Driving","location":"BAY/TAYLOR","geocoded_location":"BAY ST & TAYLOR ST","point":{"type":"Point","coordinates":[-122.415255,37.805418]},"analysis_neighborhood":"North Beach","supervisor_district":"3","data_as_of":"2026-02-03T15:23:08.000","data_loaded_at":"2026-02-03T15:32:40.633"},{"date":"2024-09-21T00:00:00.000","case_cad_event_number":"242612012","flight_duration_minutes":"16","reason_for_flight":"Auto Burglary","location":"LOMBARD/LEAVENWORTH","geocoded_location":"LOMBARD ST & LEAVENWORTH ST","point":{"type":"Point","coordinates":[-122.4179775,37.802205]},"analysis_neighborhood":"Russian Hill","supervisor_district":"3","data_as_of":"2026-02-03T15:23:08.000","data_loaded_at":"2026-02-03T15:32:40.633"},{"date":"2024-09-22T00:00:00.000","case_cad_event_number":"242661225","flight_duration_minutes":"48","reason_for_flight":"Vehicle Collision","location":"1300 Block JACKSON","geocoded_location":"1300 BLOCK OF JACKSON ST","point":{"type":"Point","coordinates":[-122.41718558,37.794689796]},"analysis_neighborhood":"Russian Hill","supervisor_district":"3","data_as_of":"2026-02-03T15:23:08.000","data_loaded_at":"2026-02-03T15:32:40.633"},{"date":"2024-09-22T00:00:00.000","case_cad_event_number":"242661426","flight_duration_minutes":"11","reason_for_flight":"Indecent Exposure","location":"COLUMBUS/BROADWAY","geocoded_location":"COLUMBUS AVE & BROADWAY","point":{"type":"Point","coordinates":[-122.4066825,37.797867]},"analysis_neighborhood":"Chinatown","supervisor_district":"3","data_as_of":"2026-02-03T15:23:08.000","data_loaded_at":"2026-02-03T15:32:40.633"},{"date":"2024-09-22T00:00:00.000","case_cad_event_number":"242661819","flight_duration_minutes":"15","reason_for_flight":"Reckless Driving","location":"JEFFERSON/TAYLOR","geocoded_location":"JEFFERSON ST & TAYLOR ST","point":{"type":"Point","coordinates":[-122.4158175,37.808217]},"analysis_neighborhood":"North Beach","supervisor_district":"3","data_as_of":"2026-02-03T15:23:08.000","data_loaded_at":"2026-02-03T15:32:40.633"},{"date":"2024-09-22T00:00:00.000","case_cad_event_number":"242662451","flight_duration_minutes":"10","reason_for_flight":"Reckless Driving","location":"PIER 35","geocoded_location":"1454 THE EMBARCADERO","point":{"type":"Point","coordinates":[-122.40625,37.80731]},"analysis_neighborhood":"North Beach","supervisor_district":"3","data_as_of":"2026-02-03T15:23:08.000","data_loaded_at":"2026-02-03T15:32:40.633"},{"date":"2024-09-22T00:00:00.000","case_cad_event_number":"242661787","flight_duration_minutes":"18","reason_for_flight":"Reckless Driving","location":"PIER 45","data_as_of":"2026-02-03T15:23:08.000","data_loaded_at":"2026-02-03T15:32:40.633"},{"date":"2024-09-25T00:00:00.000","case_cad_event_number":"242692951","flight_duration_minutes":"18","reason_for_flight":"Person with a Gun","location":"1900 Block HYDE","geocoded_location":"1900 BLOCK OF HYDE ST","point":{"type":"Point","coordinates":[-122.419024734,37.799023316]},"analysis_neighborhood":"Russian Hill","supervisor_district":"3","data_as_of":"2026-02-03T15:23:08.000","data_loaded_at":"2026-02-03T15:32:40.633"},{"date":"2024-09-25T00:00:00.000","case_cad_event_number":"242692642","flight_duration_minutes":"10","reason_for_flight":"Threats","location":"900 Block FRONT Street","geocoded_location":"900 BLOCK OF FRONT ST","point":{"type":"Point","coordinates":[-122.400174772,37.800156146]},"analysis_neighborhood":"Financial District/South Beach","supervisor_district":"3","data_as_of":"2026-02-03T15:23:08.000","data_loaded_at":"2026-02-03T15:32:40.633"},{"date":"2024-09-25T00:00:00.000","case_cad_event_number":"242692684","flight_duration_minutes":"16","reason_for_flight":"Robbery","location":"FRANCISCO/MASON","geocoded_location":"FRANCISCO ST & MASON ST","point":{"type":"Point","coordinates":[-122.4134415,37.804689]},"analysis_neighborhood":"North Beach","supervisor_district":"3","data_as_of":"2026-02-03T15:23:08.000","data_loaded_at":"2026-02-03T15:32:40.633"},{"date":"2024-09-26T00:00:00.000","case_cad_event_number":"242701916","flight_duration_minutes":"7","reason_for_flight":"Vandalism","location":"100 Block JEFFERSON","geocoded_location":"100 BLOCK OF JEFFERSON ST","point":{"type":"Point","coordinates":[-122.41498408,37.808322322]},"analysis_neighborhood":"North Beach","supervisor_district":"3","data_as_of":"2026-02-03T15:23:08.000","data_loaded_at":"2026-02-03T15:32:40.633"},{"date":"2024-09-26T00:00:00.000","case_cad_event_number":"242701980","flight_duration_minutes":"19","reason_for_flight":"Fight","location":"1900 Block HYDE","geocoded_location":"1900 BLOCK OF HYDE ST","point":{"type":"Point","coordinates":[-122.419024734,37.799023316]},"analysis_neighborhood":"Russian Hill","supervisor_district":"3","data_as_of":"2026-02-03T15:23:08.000","data_loaded_at":"2026-02-03T15:32:40.633"},{"date":"2024-09-26T00:00:00.000","case_cad_event_number":"242701636","flight_duration_minutes":"9","reason_for_flight":"Vehicle Collision","location":"BROADWAY/FRONT","geocoded_location":"BROADWAY & FRONT ST","point":{"type":"Point","coordinates":[-122.3998875,37.798731]},"analysis_neighborhood":"Financial District/South Beach","supervisor_district":"3","data_as_of":"2026-02-03T15:23:08.000","data_loaded_at":"2026-02-03T15:32:40.633"},{"date":"2024-09-26T00:00:00.000","case_cad_event_number":"242701850","flight_duration_minutes":"15","reason_for_flight":"Indecent Exposure","location":"WASHINGTON/BATTERY","geocoded_location":"WASHINGTON ST & BATTERY ST","point":{"type":"Point","coordinates":[-122.4004995,37.795878]},"analysis_neighborhood":"Chinatown","supervisor_district":"3","data_as_of":"2026-02-03T15:23:08.000","data_loaded_at":"2026-02-03T15:32:40.633"},{"date":"2024-09-28T00:00:00.000","case_cad_event_number":"240004M-15","flight_duration_minutes":"131","reason_for_flight":"Command Authorized Special Event -DigPro","location":"3300 Block Lyon","geocoded_location":"3300 BLOCK OF LYON ST","point":{"type":"Point","coordinates":[-122.447820961,37.801548755]},"analysis_neighborhood":"Presidio","supervisor_district":"2","data_as_of":"2026-02-03T15:23:08.000","data_loaded_at":"2026-02-03T15:32:40.633"},{"date":"2024-09-29T00:00:00.000","case_cad_event_number":"240000M-28","flight_duration_minutes":"45","reason_for_flight":"Command Authorized Special Event - FSF","location":"9th/Folsom","geocoded_location":"9TH ST & FOLSOM ST","point":{"type":"Point","coordinates":[-122.4116235,37.773774]},"analysis_neighborhood":"South of Market","supervisor_district":"6","data_as_of":"2026-02-03T15:23:08.000","data_loaded_at":"2026-02-03T15:32:40.633"},{"date":"2024-10-03T00:00:00.000","case_cad_event_number":"240595497","flight_duration_minutes":"5","reason_for_flight":"Pursuant to a Search Warrant","location":"700 Block Ellis St.","geocoded_location":"700 BLOCK OF ELLIS ST","point":{"type":"Point","coordinates":[-122.418563604,37.784135674]},"analysis_neighborhood":"Tenderloin","supervisor_district":"5","data_as_of":"2026-02-03T15:23:08.000","data_loaded_at":"2026-02-03T15:32:40.633"},{"date":"2024-10-03T00:00:00.000","case_cad_event_number":"240595497","flight_duration_minutes":"20","reason_for_flight":"Pursuant to a Search Warrant","location":"700 Block Ellis St.","geocoded_location":"700 BLOCK OF ELLIS ST","point":{"type":"Point","coordinates":[-122.418563604,37.784135674]},"analysis_neighborhood":"Tenderloin","supervisor_district":"5","data_as_of":"2026-02-03T15:23:08.000","data_loaded_at":"2026-02-03T15:32:40.633"},{"date":"2024-10-04T00:00:00.000","case_cad_event_number":"242783079","flight_duration_minutes":"4","reason_for_flight":"Suspicious Vehicle","location":"Boardman Pl./Gilbert St.","data_as_of":"2026-02-03T15:23:08.000","data_loaded_at":"2026-02-03T15:32:40.633"},{"date":"2024-10-05T00:00:00.000","case_cad_event_number":"242790737","flight_duration_minutes":"20","reason_for_flight":"Command authorized special event - HSBG","location":"Hellman Hollow / JFK Dr.","geocoded_location":"92 OVERLOOK DRIVE","point":{"type":"Point","coordinates":[-122.4850917,37.7691373]},"analysis_neighborhood":"Golden Gate Park","supervisor_district":"4","data_as_of":"2026-02-03T15:23:08.000","data_loaded_at":"2026-02-03T15:32:40.633"},{"date":"2024-10-09T00:00:00.000","case_cad_event_number":"242833196","flight_duration_minutes":"13","reason_for_flight":"Suspicious Package","location":"3100 Block 18th St.","geocoded_location":"3100 BLOCK OF 18TH ST","point":{"type":"Point","coordinates":[-122.414157873,37.762156618]},"analysis_neighborhood":"Mission","supervisor_district":"9","data_as_of":"2026-02-03T15:23:08.000","data_loaded_at":"2026-02-03T15:32:40.633"},{"date":"2024-10-09T00:00:00.000","case_cad_event_number":"242832911","flight_duration_minutes":"18","reason_for_flight":"Hit and Run","location":"700 Block 34th Ave","geocoded_location":"700 BLOCK OF 34TH AVE","point":{"type":"Point","coordinates":[-122.494048755,37.77491773]},"analysis_neighborhood":"Outer Richmond","supervisor_district":"1","data_as_of":"2026-02-03T15:23:08.000","data_loaded_at":"2026-02-03T15:32:40.633"},{"date":"2024-10-13T00:00:00.000","case_cad_event_number":"240462539","flight_duration_minutes":"15","reason_for_flight":"Pursuant to a Search Warrant","location":"Out of SF","data_as_of":"2026-02-03T15:23:08.000","data_loaded_at":"2026-02-03T15:32:40.633"},{"date":"2024-10-13T00:00:00.000","case_cad_event_number":"240462539","flight_duration_minutes":"25","reason_for_flight":"Pursuant to a Search Warrant","location":"Out of SF","data_as_of":"2026-02-03T15:23:08.000","data_loaded_at":"2026-02-03T15:32:40.633"},{"date":"2024-10-13T00:00:00.000","case_cad_event_number":"240462539","flight_duration_minutes":"25","reason_for_flight":"Pursuant to a Search Warrant","location":"Out of SF","data_as_of":"2026-02-03T15:23:08.000","data_loaded_at":"2026-02-03T15:32:40.633"},{"date":"2024-10-16T00:00:00.000","case_cad_event_number":"242902591","flight_duration_minutes":"18","reason_for_flight":"Burglary","location":"Erie St./14th St.","data_as_of":"2026-02-03T15:23:08.000","data_loaded_at":"2026-02-03T15:32:40.633"},{"date":"2024-10-17T00:00:00.000","case_cad_event_number":"242911664","flight_duration_minutes":"33","reason_for_flight":"Assault","location":"6th St./Russ St.","data_as_of":"2026-02-03T15:23:08.000","data_loaded_at":"2026-02-03T15:32:40.633"},{"date":"2024-10-17T00:00:00.000","case_cad_event_number":"242912759","flight_duration_minutes":"42","reason_for_flight":"Stolen vehicle","location":"Boardman Pl./Gilbert St.","data_as_of":"2026-02-03T15:23:08.000","data_loaded_at":"2026-02-03T15:32:40.633"},{"date":"2024-10-18T00:00:00.000","case_cad_event_number":"242922407","flight_duration_minutes":"19","reason_for_flight":"Stolen Vehicle","location":"400 Block Harrison St.","geocoded_location":"400 BLOCK OF HARRISON ST","point":{"type":"Point","coordinates":[-122.392514864,37.786413139]},"analysis_neighborhood":"Financial District/South Beach","supervisor_district":"6","data_as_of":"2026-02-03T15:23:08.000","data_loaded_at":"2026-02-03T15:32:40.633"},{"date":"2024-10-18T00:00:00.000","case_cad_event_number":"242921812","flight_duration_minutes":"23","reason_for_flight":"Suspicious Vehicle","location":"Leavenworth/Golden Gate","geocoded_location":"LEAVENWORTH ST & GOLDEN GATE AVE","point":{"type":"Point","coordinates":[-122.413878,37.781865]},"analysis_neighborhood":"Tenderloin","supervisor_district":"5","data_as_of":"2026-02-03T15:23:08.000","data_loaded_at":"2026-02-03T15:32:40.633"},{"date":"2024-10-18T00:00:00.000","case_cad_event_number":"242921812","flight_duration_minutes":"23","reason_for_flight":"Suspicious Vehicle","location":"Leavenworth/Golden Gate","geocoded_location":"LEAVENWORTH ST & GOLDEN GATE AVE","point":{"type":"Point","coordinates":[-122.413878,37.781865]},"analysis_neighborhood":"Tenderloin","supervisor_district":"5","data_as_of":"2026-02-03T15:23:08.000","data_loaded_at":"2026-02-03T15:32:40.633"},{"date":"2024-10-18T00:00:00.000","case_cad_event_number":"242921812","flight_duration_minutes":"23","reason_for_flight":"Suspicious Vehicle","location":"Leavenworth/Golden Gate","geocoded_location":"LEAVENWORTH ST & GOLDEN GATE AVE","point":{"type":"Point","coordinates":[-122.413878,37.781865]},"analysis_neighborhood":"Tenderloin","supervisor_district":"5","data_as_of":"2026-02-03T15:23:08.000","data_loaded_at":"2026-02-03T15:32:40.633"},{"date":"2024-10-18T00:00:00.000","case_cad_event_number":"242922331","flight_duration_minutes":"19","reason_for_flight":"Assault","location":"Octavia St./Market St.","geocoded_location":"OCTAVIA ST & MARKET ST","point":{"type":"Point","coordinates":[-122.423409,37.771893]},"analysis_neighborhood":"Mission","supervisor_district":"8","data_as_of":"2026-02-03T15:23:08.000","data_loaded_at":"2026-02-03T15:32:40.633"},{"date":"2024-10-19T00:00:00.000","case_cad_event_number":"242931552","flight_duration_minutes":"10","reason_for_flight":"Vehicle collision","location":"600 Block Townsend St.","geocoded_location":"600 BLOCK OF TOWNSEND ST","point":{"type":"Point","coordinates":[-122.402802041,37.770926889]},"analysis_neighborhood":"South of Market","supervisor_district":"6","data_as_of":"2026-02-03T15:23:08.000","data_loaded_at":"2026-02-03T15:32:40.633"},{"date":"2024-10-19T00:00:00.000","case_cad_event_number":"242931652","flight_duration_minutes":"41","reason_for_flight":"Stolen vehicle","location":"6th St./Mission St.","geocoded_location":"6TH ST & MISSION ST","point":{"type":"Point","coordinates":[-122.408721,37.780974]},"analysis_neighborhood":"South of Market","supervisor_district":"6","data_as_of":"2026-02-03T15:23:08.000","data_loaded_at":"2026-02-03T15:32:40.633"},{"date":"2024-10-19T00:00:00.000","case_cad_event_number":"242931436","flight_duration_minutes":"17","reason_for_flight":"Felony want vehicle","location":"7th St./Brannan St.","geocoded_location":"7TH ST & BRANNAN ST","point":{"type":"Point","coordinates":[-122.4032175,37.773054]},"analysis_neighborhood":"South of Market","supervisor_district":"6","data_as_of":"2026-02-03T15:23:08.000","data_loaded_at":"2026-02-03T15:32:40.633"},{"date":"2024-10-19T00:00:00.000","case_cad_event_number":"242932702","flight_duration_minutes":"14","reason_for_flight":"Vehicle Accident","location":"800 Block Howard St.","geocoded_location":"800 BLOCK OF HOWARD ST","point":{"type":"Point","coordinates":[-122.403855041,37.782365889]},"analysis_neighborhood":"South of Market","supervisor_district":"6","data_as_of":"2026-02-03T15:23:08.000","data_loaded_at":"2026-02-03T15:32:40.633"},{"date":"2024-10-19T00:00:00.000","case_cad_event_number":"242932735","flight_duration_minutes":"15","reason_for_flight":"Stolen Vehicle","location":"Van Ness Ave./California St.","geocoded_location":"VAN NESS AVE & CALIFORNIA ST","point":{"type":"Point","coordinates":[-122.4223425,37.790379]},"analysis_neighborhood":"Pacific Heights","supervisor_district":"3","data_as_of":"2026-02-03T15:23:08.000","data_loaded_at":"2026-02-03T15:32:40.633"},{"date":"2024-10-20T00:00:00.000","case_cad_event_number":"242941627","flight_duration_minutes":"22","reason_for_flight":"Stolen Vehicle","location":"3rd St./King St.","geocoded_location":"3RD ST & KING ST","point":{"type":"Point","coordinates":[-122.391855,37.77813]},"analysis_neighborhood":"Mission Bay","supervisor_district":"6","data_as_of":"2026-02-03T15:23:08.000","data_loaded_at":"2026-02-03T15:32:40.633"},{"date":"2024-10-20T00:00:00.000","case_cad_event_number":"242942724","flight_duration_minutes":"9","reason_for_flight":"Burglary","location":"700 Block Minna St.","geocoded_location":"700 BLOCK OF MINNA ST","point":{"type":"Point","coordinates":[-122.413424241,37.776408804]},"analysis_neighborhood":"South of Market","supervisor_district":"6","data_as_of":"2026-02-03T15:23:08.000","data_loaded_at":"2026-02-03T15:32:40.633"},{"date":"2024-10-20T00:00:00.000","case_cad_event_number":"242942666","flight_duration_minutes":"12","reason_for_flight":"Stolen Vehicle","location":"New Montgomery St./Mission St.","geocoded_location":"NEW MONTGOMERY ST & MISSION ST","point":{"type":"Point","coordinates":[-122.4005175,37.787454]},"analysis_neighborhood":"Financial District/South Beach","supervisor_district":"6","data_as_of":"2026-02-03T15:23:08.000","data_loaded_at":"2026-02-03T15:32:40.633"},{"date":"2024-10-20T00:00:00.000","case_cad_event_number":"242942872","flight_duration_minutes":"14","reason_for_flight":"Trespasser","location":"Unit Block Chancery Ln","data_as_of":"2026-02-03T15:23:08.000","data_loaded_at":"2026-02-03T15:32:40.633"},{"date":"2024-10-23T00:00:00.000","case_cad_event_number":"242972238","flight_duration_minutes":"15","reason_for_flight":"Assault","location":"4th St./Mission St.","geocoded_location":"4TH ST & MISSION ST","point":{"type":"Point","coordinates":[-122.4042795,37.784484]},"analysis_neighborhood":"South of Market","supervisor_district":"6","data_as_of":"2026-02-03T15:23:08.000","data_loaded_at":"2026-02-03T15:32:40.633"},{"date":"2024-10-23T00:00:00.000","case_cad_event_number":"242972345","flight_duration_minutes":"8","reason_for_flight":"Fight","location":"800 Block Terry A Francois Blvd.","geocoded_location":"800 BLOCK OF TERRY A FRANCOIS BLVD","point":{"type":"Point","coordinates":[-122.387218457,37.764968452]},"analysis_neighborhood":"Mission Bay","supervisor_district":"6","data_as_of":"2026-02-03T15:23:08.000","data_loaded_at":"2026-02-03T15:32:40.633"},{"date":"2024-10-23T00:00:00.000","case_cad_event_number":"242982959","flight_duration_minutes":"13","reason_for_flight":"Threats","location":"Otis St./Gough St.","geocoded_location":"OTIS ST & GOUGH ST","point":{"type":"Point","coordinates":[-122.420358,37.771776]},"analysis_neighborhood":"Mission","supervisor_district":"6","data_as_of":"2026-02-03T15:23:08.000","data_loaded_at":"2026-02-03T15:32:40.633"},{"date":"2024-10-23T00:00:00.000","case_cad_event_number":"242972212","flight_duration_minutes":"17","reason_for_flight":"Stolen vehicle","location":"Boardman Pl./Gilbert St.","data_as_of":"2026-02-03T15:23:08.000","data_loaded_at":"2026-02-03T15:32:40.633"},{"date":"2024-10-23T00:00:00.000","case_cad_event_number":"242972212","flight_duration_minutes":"18","reason_for_flight":"Stolen Vehicle","location":"Boardman Pl./Gilbert St.","data_as_of":"2026-02-03T15:23:08.000","data_loaded_at":"2026-02-03T15:32:40.633"},{"date":"2024-10-23T00:00:00.000","case_cad_event_number":"240507903","flight_duration_minutes":"7","reason_for_flight":"Pursuant to a Search Warrant","location":"Out of SF","data_as_of":"2026-02-03T15:23:08.000","data_loaded_at":"2026-02-03T15:32:40.633"},{"date":"2024-10-25T00:00:00.000","case_cad_event_number":"242992422","flight_duration_minutes":"7","reason_for_flight":"Vandalism","location":"700 Block 3rd St.","geocoded_location":"700 BLOCK OF 3RD ST","point":{"type":"Point","coordinates":[-122.392301854,37.778488368]},"analysis_neighborhood":"Mission Bay","supervisor_district":"6","data_as_of":"2026-02-03T15:23:08.000","data_loaded_at":"2026-02-03T15:32:40.633"},{"date":"2024-10-25T00:00:00.000","case_cad_event_number":"242993070","flight_duration_minutes":"7","reason_for_flight":"Arson","location":"Folsom St./6th St.","geocoded_location":"FOLSOM ST & 6TH ST","point":{"type":"Point","coordinates":[-122.4056295,37.778508]},"analysis_neighborhood":"South of Market","supervisor_district":"6","data_as_of":"2026-02-03T15:23:08.000","data_loaded_at":"2026-02-03T15:32:40.633"},{"date":"2024-10-25T00:00:00.000","case_cad_event_number":"242992947","flight_duration_minutes":"18","reason_for_flight":"Stolen Vehicle","location":"Boardman Pl./Gilbert St.","data_as_of":"2026-02-03T15:23:08.000","data_loaded_at":"2026-02-03T15:32:40.633"},{"date":"2024-10-29T00:00:00.000","case_cad_event_number":"240614843","flight_duration_minutes":"5","reason_for_flight":"Pursuant to a Search Warrant","location":"1200 Block Bayside Dr","geocoded_location":"1200 BLOCK OF BAYSIDE DR","point":{"type":"Point","coordinates":[-122.376295277,37.830509363]},"analysis_neighborhood":"Treasure Island","supervisor_district":"6","data_as_of":"2026-02-03T15:23:08.000","data_loaded_at":"2026-02-03T15:32:40.633"},{"date":"2024-10-29T00:00:00.000","case_cad_event_number":"240614843","flight_duration_minutes":"25","reason_for_flight":"Pursuant to a Search Warrant","location":"1200 Block Bayside Dr","geocoded_location":"1200 BLOCK OF BAYSIDE DR","point":{"type":"Point","coordinates":[-122.376295277,37.830509363]},"analysis_neighborhood":"Treasure Island","supervisor_district":"6","data_as_of":"2026-02-03T15:23:08.000","data_loaded_at":"2026-02-03T15:32:40.633"},{"date":"2024-10-30T00:00:00.000","case_cad_event_number":"243043000","flight_duration_minutes":"18","reason_for_flight":"Assault","location":"1700 Block Market","geocoded_location":"1700 BLOCK OF MARKET ST","point":{"type":"Point","coordinates":[-122.422956697,37.772317956]},"analysis_neighborhood":"Hayes Valley","supervisor_district":"6","data_as_of":"2026-02-03T15:23:08.000","data_loaded_at":"2026-02-03T15:32:40.633"},{"date":"2024-10-30T00:00:00.000","case_cad_event_number":"240587002","flight_duration_minutes":"60","reason_for_flight":"Pursuant to a Search Warrant","location":"600 Block Ellis St.","geocoded_location":"600 BLOCK OF ELLIS ST","point":{"type":"Point","coordinates":[-122.416916424,37.784347098]},"analysis_neighborhood":"Tenderloin","supervisor_district":"5","data_as_of":"2026-02-03T15:23:08.000","data_loaded_at":"2026-02-03T15:32:40.633"},{"date":"2024-10-30T00:00:00.000","case_cad_event_number":"243042654","flight_duration_minutes":"18","reason_for_flight":"Shooting","location":"Ellis St./Jones St.","geocoded_location":"ELLIS ST & JONES ST","point":{"type":"Point","coordinates":[-122.4127935,37.784871]},"analysis_neighborhood":"Tenderloin","supervisor_district":"5","data_as_of":"2026-02-03T15:23:08.000","data_loaded_at":"2026-02-03T15:32:40.633"},{"date":"2024-10-30T00:00:00.000","case_cad_event_number":"243042654","flight_duration_minutes":"22","reason_for_flight":"Shooting","location":"Ellis St./Jones St.","geocoded_location":"ELLIS ST & JONES ST","point":{"type":"Point","coordinates":[-122.4127935,37.784871]},"analysis_neighborhood":"Tenderloin","supervisor_district":"5","data_as_of":"2026-02-03T15:23:08.000","data_loaded_at":"2026-02-03T15:32:40.633"},{"date":"2024-10-30T00:00:00.000","case_cad_event_number":"240587002","flight_duration_minutes":"5","reason_for_flight":"Pursuant to a Search Warrant","location":"Polk St/Olive St.","geocoded_location":"POLK ST & OLIVE ST","point":{"type":"Point","coordinates":[-122.419467,37.784502]},"analysis_neighborhood":"Tenderloin","supervisor_district":"5","data_as_of":"2026-02-03T15:23:08.000","data_loaded_at":"2026-02-03T15:32:40.633"},{"date":"2024-10-31T00:00:00.000","case_cad_event_number":"243051888","flight_duration_minutes":"21","reason_for_flight":"Suspicious Vehicle","location":"100 Block Kezar Dr.","geocoded_location":"100 BLOCK OF KEZAR DR","point":{"type":"Point","coordinates":[-122.457022978,37.767723747]},"analysis_neighborhood":"Golden Gate Park","supervisor_district":"7","data_as_of":"2026-02-03T15:23:08.000","data_loaded_at":"2026-02-03T15:32:40.633"},{"date":"2024-10-31T00:00:00.000","case_cad_event_number":"243052180","flight_duration_minutes":"23","reason_for_flight":"Suspicious Vehicle","location":"5th St./Bryant St.","geocoded_location":"5TH ST & BRYANT ST","point":{"type":"Point","coordinates":[-122.4003105,37.777806]},"analysis_neighborhood":"South of Market","supervisor_district":"6","data_as_of":"2026-02-03T15:23:08.000","data_loaded_at":"2026-02-03T15:32:40.633"},{"date":"2024-10-31T00:00:00.000","case_cad_event_number":"243052462","flight_duration_minutes":"18","reason_for_flight":"Suicidal Subject","location":"80 WB Bay Bridge","geocoded_location":"80 BAY ST","point":{"type":"Point","coordinates":[-122.406642948,37.806557926]},"analysis_neighborhood":"North Beach","supervisor_district":"3","data_as_of":"2026-02-03T15:23:08.000","data_loaded_at":"2026-02-03T15:32:40.633"},{"date":"2024-10-31T00:00:00.000","case_cad_event_number":"243052858","flight_duration_minutes":"17","reason_for_flight":"Vehicle Accident","location":"Birch/Laguna","geocoded_location":"BIRCH ST & LAGUNA ST","point":{"type":"Point","coordinates":[-122.426559,37.777869]},"analysis_neighborhood":"Hayes Valley","supervisor_district":"5","data_as_of":"2026-02-03T15:23:08.000","data_loaded_at":"2026-02-03T15:32:40.633"},{"date":"2024-10-31T00:00:00.000","case_cad_event_number":"243051701","flight_duration_minutes":"29","reason_for_flight":"Fight","location":"Merrimac St./5th St.","geocoded_location":"MERRIMAC ST & FIFTH ST","point":{"type":"Point","coordinates":[-122.3928315,37.770462]},"analysis_neighborhood":"Mission Bay","supervisor_district":"6","data_as_of":"2026-02-03T15:23:08.000","data_loaded_at":"2026-02-03T15:32:40.633"},{"date":"2024-10-31T00:00:00.000","case_cad_event_number":"243052262","flight_duration_minutes":"10","reason_for_flight":"Threats","location":"McLea Ct.","data_as_of":"2026-02-03T15:23:08.000","data_loaded_at":"2026-02-03T15:32:40.633"},{"date":"2024-11-01T00:00:00.000","case_cad_event_number":"243061823","flight_duration_minutes":"11","reason_for_flight":"Fight","location":"100 Block of 8th St","geocoded_location":"100 BLOCK OF 8TH ST","point":{"type":"Point","coordinates":[-122.412439433,37.776877593]},"analysis_neighborhood":"South of Market","supervisor_district":"6","data_as_of":"2026-02-03T15:23:08.000","data_loaded_at":"2026-02-03T15:32:40.633"},{"date":"2024-11-01T00:00:00.000","case_cad_event_number":"243063074","flight_duration_minutes":"38","reason_for_flight":"trespasser","location":"400 Block of Alabama St","geocoded_location":"400 BLOCK OF ALABAMA ST","point":{"type":"Point","coordinates":[-122.412245684,37.763547789]},"analysis_neighborhood":"Mission","supervisor_district":"9","data_as_of":"2026-02-03T15:23:08.000","data_loaded_at":"2026-02-03T15:32:40.633"},{"date":"2024-11-01T00:00:00.000","case_cad_event_number":"243062004","flight_duration_minutes":"18","reason_for_flight":"Stolen Vehicle","location":"Harrision/9th St","geocoded_location":"HARRISON ST & 9TH ST","point":{"type":"Point","coordinates":[-122.410089,37.772532]},"analysis_neighborhood":"South of Market","supervisor_district":"6","data_as_of":"2026-02-03T15:23:08.000","data_loaded_at":"2026-02-03T15:32:40.633"},{"date":"2024-11-01T00:00:00.000","case_cad_event_number":"240711314","flight_duration_minutes":"14","reason_for_flight":"Narcotics Sale","location":"Post/Hyde","geocoded_location":"POST ST & HYDE ST","point":{"type":"Point","coordinates":[-122.41665,37.787247]},"analysis_neighborhood":"Nob Hill","supervisor_district":"3","data_as_of":"2026-02-03T15:23:08.000","data_loaded_at":"2026-02-03T15:32:40.633"},{"date":"2024-11-01T00:00:00.000","case_cad_event_number":"243061765","flight_duration_minutes":"14","reason_for_flight":"Stolen Vehicle","location":"Van Ness/California","geocoded_location":"VAN NESS AVE & CALIFORNIA ST","point":{"type":"Point","coordinates":[-122.4223425,37.790379]},"analysis_neighborhood":"Pacific Heights","supervisor_district":"3","data_as_of":"2026-02-03T15:23:08.000","data_loaded_at":"2026-02-03T15:32:40.633"},{"date":"2024-11-02T00:00:00.000","case_cad_event_number":"243071526","flight_duration_minutes":"21","reason_for_flight":"burglary","location":"1300 Block of Potrero","geocoded_location":"1300 BLOCK OF POTRERO AVE","point":{"type":"Point","coordinates":[-122.40618405,37.750929975]},"analysis_neighborhood":"Mission","supervisor_district":"9","data_as_of":"2026-02-03T15:23:08.000","data_loaded_at":"2026-02-03T15:32:40.633"},{"date":"2024-11-02T00:00:00.000","case_cad_event_number":"243071623","flight_duration_minutes":"16","reason_for_flight":"Illegal Vending","location":"24th and Mission St","geocoded_location":"24TH ST & MISSION ST","point":{"type":"Point","coordinates":[-122.418459,37.752246]},"analysis_neighborhood":"Mission","supervisor_district":"9","data_as_of":"2026-02-03T15:23:08.000","data_loaded_at":"2026-02-03T15:32:40.633"},{"date":"2024-11-02T00:00:00.000","case_cad_event_number":"243071720","flight_duration_minutes":"18","reason_for_flight":"Stolen Vehicle","location":"Unit Block of Golden Gate Ave","data_as_of":"2026-02-03T15:23:08.000","data_loaded_at":"2026-02-03T15:32:40.633"},{"date":"2024-11-03T00:00:00.000","case_cad_event_number":"240690605","flight_duration_minutes":"50","reason_for_flight":"Stolen Vehicle","location":"Potrero/16th","geocoded_location":"POTRERO AVE & 16TH ST","point":{"type":"Point","coordinates":[-122.4075465,37.765791]},"analysis_neighborhood":"Mission","supervisor_district":"9","data_as_of":"2026-02-03T15:23:08.000","data_loaded_at":"2026-02-03T15:32:40.633"},{"date":"2024-11-03T00:00:00.000","case_cad_event_number":"243082911","flight_duration_minutes":"10","reason_for_flight":"Suspicious Person","location":"South Park/ 2nd Street","geocoded_location":"SOUTH PARK & 2ND ST","point":{"type":"Point","coordinates":[-122.392854,37.782459]},"analysis_neighborhood":"Financial District/South Beach","supervisor_district":"6","data_as_of":"2026-02-03T15:23:08.000","data_loaded_at":"2026-02-03T15:32:40.633"},{"date":"2024-11-03T00:00:00.000","case_cad_event_number":"243082291","flight_duration_minutes":"12","reason_for_flight":"Trespasser in building","location":"Unit block of Harriet","data_as_of":"2026-02-03T15:23:08.000","data_loaded_at":"2026-02-03T15:32:40.633"},{"date":"2024-11-06T00:00:00.000","case_cad_event_number":"243111749","flight_duration_minutes":"12","reason_for_flight":"Person with a Gun","location":"6th/Harrison Street","geocoded_location":"6TH ST & HARRISON ST","point":{"type":"Point","coordinates":[-122.4040815,37.777275]},"analysis_neighborhood":"South of Market","supervisor_district":"6","data_as_of":"2026-02-03T15:23:08.000","data_loaded_at":"2026-02-03T15:32:40.633"},{"date":"2024-11-06T00:00:00.000","case_cad_event_number":"240697322","flight_duration_minutes":"3","reason_for_flight":"Armed car jacking","location":"Pacific Ave / Polk st","geocoded_location":"PACIFIC AVE & POLK ST","point":{"type":"Point","coordinates":[-122.4215955,37.795032]},"analysis_neighborhood":"Russian Hill","supervisor_district":"3","data_as_of":"2026-02-03T15:23:08.000","data_loaded_at":"2026-02-03T15:32:40.633"},{"date":"2024-11-07T00:00:00.000","case_cad_event_number":"243121830","flight_duration_minutes":"10","reason_for_flight":"Suicidal person on the roof","location":"1100 Block Jones St","geocoded_location":"1100 BLOCK OF JONES ST","point":{"type":"Point","coordinates":[-122.414214772,37.791894146]},"analysis_neighborhood":"Nob Hill","supervisor_district":"3","data_as_of":"2026-02-03T15:23:08.000","data_loaded_at":"2026-02-03T15:32:40.633"},{"date":"2024-11-07T00:00:00.000","case_cad_event_number":"240699334","flight_duration_minutes":"15","reason_for_flight":"Investigation Person w/scissors","location":"5th & Howard St","geocoded_location":"5TH ST & HOWARD ST","point":{"type":"Point","coordinates":[-122.4049455,37.781505]},"analysis_neighborhood":"South of Market","supervisor_district":"6","data_as_of":"2026-02-03T15:23:08.000","data_loaded_at":"2026-02-03T15:32:40.633"},{"date":"2024-11-07T00:00:00.000","case_cad_event_number":"243121399","flight_duration_minutes":"15","reason_for_flight":"stolen vehicle","location":"6th and Market St","geocoded_location":"6TH ST & MARKET ST","point":{"type":"Point","coordinates":[-122.410305,37.782234]},"analysis_neighborhood":"Tenderloin","supervisor_district":"6","data_as_of":"2026-02-03T15:23:08.000","data_loaded_at":"2026-02-03T15:32:40.633"},{"date":"2024-11-07T00:00:00.000","case_cad_event_number":"243122281","flight_duration_minutes":"15","reason_for_flight":"Investigation person with kife","location":"7th & Bryant St","geocoded_location":"7TH ST & BRYANT ST","point":{"type":"Point","coordinates":[-122.404761,37.774287]},"analysis_neighborhood":"South of Market","supervisor_district":"6","data_as_of":"2026-02-03T15:23:08.000","data_loaded_at":"2026-02-03T15:32:40.633"},{"date":"2024-11-07T00:00:00.000","case_cad_event_number":"243122235","flight_duration_minutes":"25","reason_for_flight":"Investigation Stolen Vehicle","location":"Castro & Market","geocoded_location":"CASTRO ST & MARKET ST","point":{"type":"Point","coordinates":[-122.435199,37.762677]},"analysis_neighborhood":"Castro/Upper Market","supervisor_district":"8","data_as_of":"2026-02-03T15:23:08.000","data_loaded_at":"2026-02-03T15:32:40.633"},{"date":"2024-11-07T00:00:00.000","case_cad_event_number":"240698568","flight_duration_minutes":"30","reason_for_flight":"Search Warrant","location":"Revere and Selby","geocoded_location":"REVERE AVE & SELBY ST","point":{"type":"Point","coordinates":[-122.401386,37.738026]},"analysis_neighborhood":"Bayview Hunters Point","supervisor_district":"10","data_as_of":"2026-02-03T15:23:08.000","data_loaded_at":"2026-02-03T15:32:40.633"},{"date":"2024-11-07T00:00:00.000","case_cad_event_number":"240697883","flight_duration_minutes":"10","reason_for_flight":"Search Warrant","location":"Silliman Street / Yale Street","geocoded_location":"SILLIMAN ST & YALE ST","point":{"type":"Point","coordinates":[-122.417919,37.727892]},"analysis_neighborhood":"Excelsior","supervisor_district":"9","data_as_of":"2026-02-03T15:23:08.000","data_loaded_at":"2026-02-03T15:32:40.633"},{"date":"2024-11-07T00:00:00.000","case_cad_event_number":"240697883","flight_duration_minutes":"20","reason_for_flight":"Assist Berkeley PD with High Risk Search warrant","location":"Silliman Street / Yale Street","geocoded_location":"SILLIMAN ST & YALE ST","point":{"type":"Point","coordinates":[-122.417919,37.727892]},"analysis_neighborhood":"Excelsior","supervisor_district":"9","data_as_of":"2026-02-03T15:23:08.000","data_loaded_at":"2026-02-03T15:32:40.633"},{"date":"2024-11-07T00:00:00.000","case_cad_event_number":"240697883","flight_duration_minutes":"25","reason_for_flight":"Search Warrant","location":"Silliman Street / Yale Street","geocoded_location":"SILLIMAN ST & YALE ST","point":{"type":"Point","coordinates":[-122.417919,37.727892]},"analysis_neighborhood":"Excelsior","supervisor_district":"9","data_as_of":"2026-02-03T15:23:08.000","data_loaded_at":"2026-02-03T15:32:40.633"},{"date":"2024-11-07T00:00:00.000","case_cad_event_number":"240697883","flight_duration_minutes":"25","reason_for_flight":"Assist Berkeley PD with High Risk Search warrant","location":"Silliman Street / Yale Street","geocoded_location":"SILLIMAN ST & YALE ST","point":{"type":"Point","coordinates":[-122.417919,37.727892]},"analysis_neighborhood":"Excelsior","supervisor_district":"9","data_as_of":"2026-02-03T15:23:08.000","data_loaded_at":"2026-02-03T15:32:40.633"},{"date":"2024-11-08T00:00:00.000","case_cad_event_number":"243132624","flight_duration_minutes":"9","reason_for_flight":"Stolen Vehicle","location":"4th St & Brannan","geocoded_location":"4TH ST & BRANNAN ST","point":{"type":"Point","coordinates":[-122.396544,37.778328]},"analysis_neighborhood":"South of Market","supervisor_district":"6","data_as_of":"2026-02-03T15:23:08.000","data_loaded_at":"2026-02-03T15:32:40.633"},{"date":"2024-11-08T00:00:00.000","case_cad_event_number":"243131931","flight_duration_minutes":"7","reason_for_flight":"Person with a Gun","location":"Harrison St & 8th St","geocoded_location":"HARRISON ST & 8TH ST","point":{"type":"Point","coordinates":[-122.4085275,37.773765]},"analysis_neighborhood":"South of Market","supervisor_district":"6","data_as_of":"2026-02-03T15:23:08.000","data_loaded_at":"2026-02-03T15:32:40.633"},{"date":"2024-11-08T00:00:00.000","case_cad_event_number":"243132090","flight_duration_minutes":"17","reason_for_flight":"Person Casing Vehicles","location":"Howard St & 6th","geocoded_location":"HOWARD ST & 6TH ST","point":{"type":"Point","coordinates":[-122.407173,37.779741]},"analysis_neighborhood":"South of Market","supervisor_district":"6","data_as_of":"2026-02-03T15:23:08.000","data_loaded_at":"2026-02-03T15:32:40.633"},{"date":"2024-11-08T00:00:00.000","case_cad_event_number":"240700555","flight_duration_minutes":"19","reason_for_flight":"Investigation Stolen Vehicle","location":"Mcallister/Larkin Streets","geocoded_location":"MCALLISTER ST & LARKIN ST","point":{"type":"Point","coordinates":[-122.4169605,37.780479]},"analysis_neighborhood":"Tenderloin","supervisor_district":"5","data_as_of":"2026-02-03T15:23:08.000","data_loaded_at":"2026-02-03T15:32:40.633"},{"date":"2024-11-08T00:00:00.000","case_cad_event_number":"243132759","flight_duration_minutes":"97","reason_for_flight":"Auto burglary caser","location":"Sutter/Jones","geocoded_location":"SUTTER ST & JONES ST","point":{"type":"Point","coordinates":[-122.413554,37.788606]},"analysis_neighborhood":"Nob Hill","supervisor_district":"3","data_as_of":"2026-02-03T15:23:08.000","data_loaded_at":"2026-02-03T15:32:40.633"},{"date":"2024-11-13T00:00:00.000","case_cad_event_number":"243182718","flight_duration_minutes":"10","reason_for_flight":"Suspect throwing scooters at vehicles","location":"400 Block Mission Street","geocoded_location":"400 BLOCK OF MISSION ST","point":{"type":"Point","coordinates":[-122.397152155,37.790112136]},"analysis_neighborhood":"Financial District/South Beach","supervisor_district":"6","data_as_of":"2026-02-03T15:23:08.000","data_loaded_at":"2026-02-03T15:32:40.633"},{"date":"2024-11-13T00:00:00.000","case_cad_event_number":"243182596","flight_duration_minutes":"7","reason_for_flight":"Vehicle on Train Tracks","location":"4th/King Street","geocoded_location":"4TH ST & KING ST","point":{"type":"Point","coordinates":[-122.3940465,37.776339]},"analysis_neighborhood":"Mission Bay","supervisor_district":"6","data_as_of":"2026-02-03T15:23:08.000","data_loaded_at":"2026-02-03T15:32:40.633"},{"date":"2024-11-13T00:00:00.000","case_cad_event_number":"243183065","flight_duration_minutes":"16","reason_for_flight":"Indecent Exposure","location":"4th/Mission Street","geocoded_location":"4TH ST & MISSION ST","point":{"type":"Point","coordinates":[-122.4042795,37.784484]},"analysis_neighborhood":"South of Market","supervisor_district":"6","data_as_of":"2026-02-03T15:23:08.000","data_loaded_at":"2026-02-03T15:32:40.633"},{"date":"2024-11-13T00:00:00.000","case_cad_event_number":"243192036","flight_duration_minutes":"8","reason_for_flight":"warrant arrest","location":"Bush/Montgomery","geocoded_location":"BUSH ST & MONTGOMERY ST","point":{"type":"Point","coordinates":[-122.402394,37.790973]},"analysis_neighborhood":"Financial District/South Beach","supervisor_district":"3","data_as_of":"2026-02-03T15:23:08.000","data_loaded_at":"2026-02-03T15:32:40.633"},{"date":"2024-11-14T00:00:00.000","case_cad_event_number":"243190411","flight_duration_minutes":"3","reason_for_flight":"Suicidal","location":"200 Block Hartford St","geocoded_location":"200 BLOCK OF HARTFORD ST","point":{"type":"Point","coordinates":[-122.433681113,37.758544891]},"analysis_neighborhood":"Castro/Upper Market","supervisor_district":"8","data_as_of":"2026-02-03T15:23:08.000","data_loaded_at":"2026-02-03T15:32:40.633"},{"date":"2024-11-14T00:00:00.000","case_cad_event_number":"243192932","flight_duration_minutes":"17","reason_for_flight":"Threats with taser","location":"6th and Market","geocoded_location":"6TH ST & MARKET ST","point":{"type":"Point","coordinates":[-122.410305,37.782234]},"analysis_neighborhood":"Tenderloin","supervisor_district":"6","data_as_of":"2026-02-03T15:23:08.000","data_loaded_at":"2026-02-03T15:32:40.633"},{"date":"2024-11-15T00:00:00.000","case_cad_event_number":"243211402","flight_duration_minutes":"47","reason_for_flight":"Fire","location":"14th/South Van Ness","geocoded_location":"14TH ST & SOUTH VAN NESS AVE","point":{"type":"Point","coordinates":[-122.4178155,37.76841]},"analysis_neighborhood":"Mission","supervisor_district":"9","data_as_of":"2026-02-03T15:23:08.000","data_loaded_at":"2026-02-03T15:32:40.633"},{"date":"2024-11-15T00:00:00.000","case_cad_event_number":"243202469","flight_duration_minutes":"22","reason_for_flight":"Suicidal Person.","location":"400 Block 10th St.","geocoded_location":"400 BLOCK OF 10TH ST","point":{"type":"Point","coordinates":[-122.410504633,37.770959223]},"analysis_neighborhood":"South of Market","supervisor_district":"6","data_as_of":"2026-02-03T15:23:08.000","data_loaded_at":"2026-02-03T15:32:40.633"},{"date":"2024-11-15T00:00:00.000","case_cad_event_number":"243202640","flight_duration_minutes":"17","reason_for_flight":"Suspicious Vehicle","location":"Stockton/Post","geocoded_location":"STOCKTON ST & POST ST","point":{"type":"Point","coordinates":[-122.406786,37.788507]},"analysis_neighborhood":"Financial District/South Beach","supervisor_district":"3","data_as_of":"2026-02-03T15:23:08.000","data_loaded_at":"2026-02-03T15:32:40.633"},{"date":"2024-11-16T00:00:00.000","case_cad_event_number":"243211793","flight_duration_minutes":"17","reason_for_flight":"domestic violence","location":"Rodgers/Folsom","geocoded_location":"RODGERS ST & FOLSOM ST","point":{"type":"Point","coordinates":[-122.409495,37.775457]},"analysis_neighborhood":"South of Market","supervisor_district":"6","data_as_of":"2026-02-03T15:23:08.000","data_loaded_at":"2026-02-03T15:32:40.633"},{"date":"2024-11-17T00:00:00.000","case_cad_event_number":"240718605","flight_duration_minutes":"18","reason_for_flight":"Drunk Driver, Vehicle Fire","location":"500 Block Howard St","geocoded_location":"500 BLOCK OF HOWARD ST","point":{"type":"Point","coordinates":[-122.397333393,37.787524028]},"analysis_neighborhood":"Financial District/South Beach","supervisor_district":"6","data_as_of":"2026-02-03T15:23:08.000","data_loaded_at":"2026-02-03T15:32:40.633"},{"date":"2024-11-17T00:00:00.000","case_cad_event_number":"240718570","flight_duration_minutes":"35","reason_for_flight":"Burglary Call","location":"600 Block of Howard St","geocoded_location":"600 BLOCK OF HOWARD ST","point":{"type":"Point","coordinates":[-122.40056192,37.784969375]},"analysis_neighborhood":"Financial District/South Beach","supervisor_district":"6","data_as_of":"2026-02-03T15:23:08.000","data_loaded_at":"2026-02-03T15:32:40.633"},{"date":"2024-11-17T00:00:00.000","case_cad_event_number":"240718235","flight_duration_minutes":"16","reason_for_flight":"Robbery Vehicle of interest","location":"Hayes St/Broderick St","geocoded_location":"HAYES ST & BRODERICK ST","point":{"type":"Point","coordinates":[-122.4394785,37.774782]},